SALE TYPE,PROPERTY TYPE,PROPERTY ADDRESS,CITY,STATE OR PROVINCE,ZIP OR POSTAL CODE,PRICE,BEDS,BATHS,PROPERTY LOCATION,SQUARE FEET,LOT SIZE,YEAR BUILT,DAYS ON MARKET,HOA MONTH,PROPERTY STATUS,SOURCE_\ URL ,SOURCE,MLS NO,LATITUDE,LONGITUDE
MLS Listing,Condo/Co-op,451 Kansas St #392,San Francisco,CA,94107,1190000,2,2.0,San Francisco,964,80311,2007,1,618,Active,http://www.redfin.com/CA/San-Francisco/451-Kansas-St-94107/unit-392/home/23424289,San Francisco MLS,421517424,37.764113,-122.4029865
MLS Listing,Condo/Co-op,1 Buena Vista St E Unit A,San Francisco,CA,94117,1250000,2,1.0,San Francisco,1258,1900,1896,1,400,Active,http://www.redfin.com/CA/San-Francisco/1-Buena-Vista-Ave-E-94117/unit-A/home/75123624,San Francisco MLS,421516808,37.7707782,-122.4399305
MLS Listing,Single Family Residential,152 Saturn St,San Francisco,CA,94114,1375000,2,2.0,San Francisco,1100,2217,1906,1,406,Active,http://www.redfin.com/CA/San-Francisco/152-Saturn-St-94114/home/144286357,San Francisco MLS,421516917,37.7627433,-122.443778
MLS Listing,Single Family Residential,148 Saturn St,San Francisco,CA,94114,975000,1,1.5,San Francisco,1005,2217,1906,1,370,Active,http://www.redfin.com/CA/San-Francisco/148-Saturn-St-94114/home/671009,San Francisco MLS,421517049,37.7628338,-122.4437049
MLS Listing,Single Family Residential,1270 16th Ave,San Francisco,CA,94122,1300000,3,1.0,San Francisco,1340,2500,1908,7,,Active,http://www.redfin.com/CA/San-Francisco/1270-16th-Ave-94122/home/626970,BAREIS,515641,37.7642801,-122.4737579
MLS Listing,Condo/Co-op,451 Kansas St #371,San Francisco,CA,94107,899000,1,1.0,San Francisco,778,,2007,8,566,Active,http://www.redfin.com/CA/San-Francisco/451-Kansas-St-94107/unit-371/home/23424333,San Francisco MLS,515307,37.764113,-122.4029865
MLS Listing,Single Family Residential,4448 24th St,San Francisco,CA,94114,1650000,2,2.0,San Francisco,,2944,1910,15,,Active,http://www.redfin.com/CA/San-Francisco/4448-24th-St-94114/home/1053431,San Francisco MLS,512914,37.7511831,-122.4417657
MLS Listing,Condo/Co-op,45 Western Shore Ln #4,San Francisco,CA,94115,599000,2,1.0,San Francisco,840,,1963,22,764,Active,http://www.redfin.com/CA/San-Francisco/45-Western-Shore-Ln-94115/unit-4/home/12401212,San Francisco MLS,512296,37.7839552,-122.4286985
MLS Listing,Condo/Co-op,1635 California St #24,San Francisco,CA,94109,950000,2,2.0,San Francisco,915,,2005,22,639,Active,http://www.redfin.com/CA/San-Francisco/1635-California-St-94109/unit-24/home/12277015,San Francisco MLS,511753,37.7901833,-122.4213456
MLS Listing,Condo/Co-op,1688 Pine St Unit E506,San Francisco,CA,94109,1298000,2,2.0,San Francisco,989,,2016,29,758,Active,http://www.redfin.com/CA/San-Francisco/1688-Pine-St-94109/unit-E506/home/112778979,San Francisco MLS,511544,37.789553,-122.4232788
MLS Listing,Condo/Co-op,1875 Mission St #406,San Francisco,CA,94103,848000,2,1.0,San Francisco,631,,2014,30,647,Active,http://www.redfin.com/CA/San-Francisco/1875-Mission-St-94103/unit-406/home/109315389,San Francisco MLS,511833,37.7671013,-122.4194461
MLS Listing,Condo/Co-op,757 North Point St #4,San Francisco,CA,94109,1198000,2,2.0,San Francisco,1190,,1989,54,700,Active,http://www.redfin.com/CA/San-Francisco/757-N-Point-St-94109/unit-4/home/1816724,San Francisco MLS,511091,37.8055317,-122.4196058
MLS Listing,Condo/Co-op,1083 Clay St #201,San Francisco,CA,94108,915000,1,1.0,San Francisco,915,,1984,78,774,Active,http://www.redfin.com/CA/San-Francisco/1083-Clay-St-94108/unit-201/home/866246,San Francisco MLS,510175,37.7935318,-122.4108297
MLS Listing,Single Family Residential,1370 Hayes St #1372,San Francisco,CA,94117,1450000,4,2.0,San Francisco,1706,,1900,137,286,Active,http://www.redfin.com/CA/San-Francisco/1370-Hayes-St-94117/unit-1372/home/148065731,San Francisco MLS,506674,37.775124,-122.439022
PAST SALE,Condo/Co-op,1 Buena Vista Ave E Unit 1A,San Francisco,CA,94117,618000,,1.0,,,2495,1950,,,Off Market,http://www.redfin.com/CA/San-Francisco/143-Valmar-Ter-94112/home/1026409,Coming Soon,,37.7252771,-122.4245985
MLS Listing,Single Family Residential,1035 Natoma St,San Francisco,CA,94103,1485000,3,1.5,San Francisco,,2000,1906,1,,Active,http://www.redfin.com/CA/San-Francisco/1035-Natoma-St-94103/home/1890078,San Francisco MLS,421517543,37.7730068,-122.4165635
MLS Listing,Condo/Co-op,829 Folsom St #516,San Francisco,CA,94107,1350000,2,2.0,San Francisco,924,10313,2010,1,843,Active,http://www.redfin.com/CA/San-Francisco/829-Folsom-St-94107/unit-516/home/40142715,San Francisco MLS,421517487,37.7811548,-122.4016513
MLS Listing,Multi-Family (5+ Unit),1950 Sacramento St,San Francisco,CA,94109,4895000,8,4.0,San Francisco,8895,3828,1923,1,,Active,http://www.redfin.com/CA/San-Francisco/1950-Sacramento-St-94109/home/567853,San Francisco MLS,421516032,37.7912249,-122.4250694
MLS Listing,Single Family Residential,2205 Sacramento St #304,San Francisco,CA,94115,1635000,2,1.5,San Francisco,1582,8778,1908,1,695,Active,http://www.redfin.com/CA/San-Francisco/2205-Sacramento-St-94115/unit-304/home/1260237,MetroList,421517349,37.7901338,-122.4295084
MLS Listing,Condo/Co-op,1738 Lombard St #8,San Francisco,CA,94123,1995000,3,3.0,San Francisco,1717,5844,2004,1,653,Active,http://www.redfin.com/CA/San-Francisco/1738-Lombard-St-94123/unit-8/home/869293,San Francisco MLS,421516942,37.8009124,-122.4302329
MLS Listing,Single Family Residential,790 35th Ave,San Francisco,CA,94121,2495000,4,3.5,San Francisco,2610,2060,1924,1,,Active,http://www.redfin.com/CA/San-Francisco/790-35th-Ave-94121/home/991614,San Francisco MLS,421517365,37.7741724,-122.4948853
MLS Listing,Condo/Co-op,3620 Cesar Chavez St #103,San Francisco,CA,94110,745000,1,1.0,San Francisco,,,2020,1,463,Active,http://www.redfin.com/CA/San-Francisco/3620-Cesar-Chavez-94110/unit-103/home/170501392,San Francisco MLS,421517328,37.748323,-122.421911
MLS Listing,Condo/Co-op,143 Graystone Ter,San Francisco,CA,94114,1099000,2,1.0,Twin Peaks,1208,9999,1953,1,423,Active,http://www.redfin.com/CA/San-Francisco/143-Graystone-Ter-94114/home/52055496,"bridgeMLS, Bay East AOR, or Contra Costa AOR",40936816,37.757756,-122.446408
MLS Listing,Condo/Co-op,1450 Franklin St Ph 3,San Francisco,CA,94109,3750000,3,3.0,San Francisco,2076,12318,2017,1,1337,Active,http://www.redfin.com/CA/San-Francisco/1450-Franklin-St-94109/unit-3/home/167259476,San Francisco MLS,421517276,37.7881104,-122.4232776
MLS Listing,Condo/Co-op,1440 Broadway #101,San Francisco,CA,94109,899000,1,1.0,San Francisco,625,12448,1982,1,662,Active,http://www.redfin.com/CA/San-Francisco/1440-Broadway-94109/unit-101/home/872607,San Francisco MLS,421517370,37.7963851,-122.4207265
MLS Listing,Condo/Co-op,4515 25th St Unit A,San Francisco,CA,94114,1650000,2,2.0,San Francisco,1316,2500,1999,1,,Active,http://www.redfin.com/CA/San-Francisco/4515-25th-St-94114/unit-A/home/1672097,San Francisco MLS,421516339,37.749129,-122.439566
MLS Listing,Single Family Residential,354 Niagara Ave,San Francisco,CA,94112,959000,2,1.0,San Francisco,850,1751,1943,1,,Active,http://www.redfin.com/CA/San-Francisco/354-Niagara-Ave-94112/home/1918511,San Francisco MLS,512421,37.7192997,-122.4466906
MLS Listing,Condo/Co-op,1701 Jackson St #603,San Francisco,CA,94109,1225000,2,2.0,San Francisco,1109,38432,2001,1,851,Active,http://www.redfin.com/CA/San-Francisco/1701-Jackson-St-94109/unit-603/home/1810423,San Francisco MLS,421517141,37.7934317,-122.4234277
MLS Listing,Multi-Family (2-4 Unit),825 - 829 22nd St,San Francisco,CA,94107,3200000,5,3.0,San Francisco,5040,2375,,1,,Active,http://www.redfin.com/CA/San-Francisco/825-22nd-St-94107/home/1759421,San Francisco MLS,421516997,37.7576321,-122.3897495
MLS Listing,Condo/Co-op,638 19th St #10,San Francisco,CA,94107,1525000,3,2.5,San Francisco,1467,14761,2007,1,648,Active,http://www.redfin.com/CA/San-Francisco/638-19th-St-94107/unit-10/home/12277838,San Francisco MLS,513240,37.7620843,-122.3890109
MLS Listing,Single Family Residential,20 Ridgewood Ave,San Francisco,CA,94112,1195000,2,2.0,San Francisco,1690,2495,1909,1,,Active,http://www.redfin.com/CA/San-Francisco/20-Ridgewood-Ave-94112/home/2011050,San Francisco MLS,421517050,37.7302041,-122.4531595
MLS Listing,Single Family Residential,2415 Octavia St,San Francisco,CA,94109,4595000,7,3.5,San Francisco,6781,2824,1892,1,,Active,http://www.redfin.com/CA/San-Francisco/2415-Octavia-St-94109/home/563713,San Francisco MLS,421517272,37.7949366,-122.4286088
MLS Listing,Single Family Residential,313 Duncan St,San Francisco,CA,94131,4695000,5,5.5,San Francisco,,3001,1900,1,,Active,http://www.redfin.com/CA/San-Francisco/313-Duncan-St-94131/home/1464726,San Francisco MLS,508220,37.745812,-122.427582
MLS Listing,Condo/Co-op,255 Berry St #708,San Francisco,CA,94158,2995000,2,2.5,San Francisco,2435,42959,2004,1,1049,Active,http://www.redfin.com/CA/San-Francisco/255-Berry-St-94158/unit-708/home/874161,San Francisco MLS,421517348,37.7741864,-122.3947434
MLS Listing,Condo/Co-op,555 4th St #535,San Francisco,CA,94107,749000,1,1.0,San Francisco,691,63237,,1,621,Active,http://www.redfin.com/CA/San-Francisco/555-4th-St-94107/unit-535/home/12277709,San Francisco MLS,514778,37.7794218,-122.3967124
MLS Listing,Condo/Co-op,2944 Polk St,San Francisco,CA,94109,1850000,3,3.0,San Francisco,,2186,1926,1,,Active,http://www.redfin.com/CA/San-Francisco/2944-Polk-St-94109/home/174374458,San Francisco MLS,514191,37.8040705,-122.4233091
MLS Listing,Condo/Co-op,601 Alabama St #102,SAN FRANCISCO,CA,94110,998888,3,2.0,SAN FRANCISCO,1232,,2009,1,837,Active,http://www.redfin.com/CA/San-Francisco/601-Alabama-St-94110/unit-102/home/40138250,MLSListings,ML81828676,37.7610337,-122.411506
MLS Listing,Condo/Co-op,1000 3rd St #906,San Francisco,CA,94158,1395000,2,2.0,San Francisco,1156,46014,2018,1,944,Active,http://www.redfin.com/CA/San-Francisco/1000-3rd-St-94158/unit-906/home/167382682,San Francisco MLS,421516418,37.7752125,-122.3902276
MLS Listing,Condo/Co-op,3550 Market St,San Francisco,CA,94131,1249000,2,2.0,San Francisco,1143,11946,1979,1,660,Active,http://www.redfin.com/CA/San-Francisco/3550-Market-St-94131/unit-101/home/1867663,San Francisco MLS,421517267,37.756311,-122.4418549
MLS Listing,Condo/Co-op,3345 21st St,San Francisco,CA,94110,1995000,3,2.0,San Francisco,2050,2855,1885,1,176,Active,http://www.redfin.com/CA/San-Francisco/3345-21st-St-94110/home/11743092,San Francisco MLS,421516094,37.7565979,-122.422091
MLS Listing,Condo/Co-op,3827 Clay St,San Francisco,CA,94118,2750000,2,2.0,San Francisco,2005,,1904,1,300,Active,http://www.redfin.com/CA/San-Francisco/3827-Clay-St-94118/home/2023625,San Francisco MLS,505893,37.78773,-122.455826
MLS Listing,Single Family Residential,971 Le Conte Ave,San Francisco,CA,94124,849000,2,1.0,San Francisco,841,2674,1941,1,,Active,http://www.redfin.com/CA/San-Francisco/971-Le-Conte-Ave-94124/home/1885302,San Francisco MLS,421517092,37.7178249,-122.396131
MLS Listing,Condo/Co-op,1762 Jackson St,San Francisco,CA,94109,1650000,3,2.0,San Francisco,,3255,1950,1,400,Active,http://www.redfin.com/CA/San-Francisco/1762-Jackson-St-94109/home/1659074,San Francisco MLS,508829,37.7940277,-122.4241846
MLS Listing,Condo/Co-op,350 Broderick St #202,San Francisco,CA,94117,1095000,2,2.0,San Francisco,1125,,2007,1,569,Active,http://www.redfin.com/CA/San-Francisco/350-Broderick-St-94117/unit-202/home/22889826,San Francisco MLS,421516919,37.7734397,-122.4387558
MLS Listing,Multi-Family (2-4 Unit),130 Alpine Ter,San Francisco,CA,94117,2399000,4,4.0,San Francisco,2900,2901,1906,1,,Active,http://www.redfin.com/CA/San-Francisco/130-Alpine-Ter-94117/home/1905199,San Francisco MLS,421517124,37.768359,-122.4376781
MLS Listing,Multi-Family (2-4 Unit),1718 - 1722 Bryant St,San Francisco,CA,94110,2250000,8,5.0,San Francisco,5300,2500,1900,1,,Active,http://www.redfin.com/CA/San-Francisco/1718-Bryant-St-94110/home/1479341,San Francisco MLS,509818,37.7651022,-122.4107517
MLS Listing,Condo/Co-op,233 Franklin St #406,San Francisco,CA,94102,1650000,2,2.0,San Francisco,1360,13254,2010,1,650,Active,http://www.redfin.com/CA/San-Francisco/233-Franklin-St-94102/unit-406/home/40138532,San Francisco MLS,421516955,37.7768456,-122.4215082
MLS Listing,Condo/Co-op,1 Hawthorne St Unit 20A,San Francisco,CA,94105,1100000,1,1.0,San Francisco,909,,,1,839,Active,http://www.redfin.com/CA/San-Francisco/1-Hawthorne-St-94105/unit-20A/home/69371171,San Francisco MLS,513923,37.7857356,-122.3989521
MLS Listing,Condo/Co-op,280 Spear St Unit 6J,San Francisco,CA,94105,1695000,2,2.0,San Francisco,1422,52272,,1,1284,Active,http://www.redfin.com/CA/San-Francisco/280-Spear-St-94105/unit-6J/home/170002427,San Francisco MLS,421517254,37.7903739,-122.3913812
MLS Listing,Single Family Residential,2130 Quesada Ave,San Francisco,CA,94124,895000,4,2.0,San Francisco,1575,2500,1944,1,,Active,http://www.redfin.com/CA/San-Francisco/2130-Quesada-Ave-94124/home/1828696,San Francisco MLS,514561,37.7380675,-122.3994117
MLS Listing,Condo/Co-op,5 Cyrus Pl Unit A,San Francisco,CA,94109,1695000,2,2.5,San Francisco,1310,2468,1902,1,350,Active,http://www.redfin.com/CA/San-Francisco/5-Cyrus-Pl-94109/unit-A/home/39930485,San Francisco MLS,421516439,37.7961153,-122.4173109
MLS Listing,Single Family Residential,1423 24th Ave,San Francisco,CA,94122,1999999,7,5.0,San Francisco,3915,3000,1911,1,,Active,http://www.redfin.com/CA/San-Francisco/1423-24th-Ave-94122/home/1500328,San Francisco MLS,421517177,37.7609632,-122.4826462
MLS Listing,Condo/Co-op,300 Berry St #1504,San Francisco,CA,94158,950000,1,1.0,San Francisco,856,,2009,1,606,Active,http://www.redfin.com/CA/San-Francisco/300-Berry-St-94158/unit-1504/home/28938802,San Francisco MLS,508520,37.7739297,-122.3962408
MLS Listing,Single Family Residential,2946 22nd St,San Francisco,CA,94110,939000,2,1.0,San Francisco,,2273,1909,1,449,Active,http://www.redfin.com/CA/San-Francisco/2946-22nd-St-94110/home/12543169,San Francisco MLS,421516791,37.75596,-122.4131578
MLS Listing,Single Family Residential,2731 Pacheco St,San Francisco,CA,94116,999000,2,1.0,San Francisco,800,1873,1943,1,,Active,http://www.redfin.com/CA/San-Francisco/2731-Pacheco-St-94116/home/1219526,San Francisco MLS,515646,37.7497404,-122.489648
MLS Listing,Single Family Residential,3888 26th St,San Francisco,CA,94131,2395000,3,2.5,San Francisco,2120,1288,1915,1,,Active,http://www.redfin.com/CA/San-Francisco/3888-26th-St-94131/home/1769238,San Francisco MLS,514030,37.7486747,-122.4267396
MLS Listing,Single Family Residential,1731 Larkin St #4,San Francisco,CA,94109,1575000,2,2.0,San Francisco,,,1908,1,475,Active,http://www.redfin.com/CA/San-Francisco/1731-Larkin-St-94109/unit-4/home/98210376,San Francisco MLS,421516257,37.7938586,-122.4199766
MLS Listing,Condo/Co-op,400 Oak St #2,San Francisco,CA,94102,999000,2,1.0,San Francisco,965,2145,,1,454,Active,http://www.redfin.com/CA/San-Francisco/400-Oak-St-94102/unit-2/home/28890103,San Francisco MLS,513121,37.7747824,-122.4260936
MLS Listing,Single Family Residential,1524 Noe St,San Francisco,CA,94131,2099000,3,2.5,San Francisco,,2625,1910,1,,Active,http://www.redfin.com/CA/San-Francisco/1524-Noe-St-94131/home/804114,San Francisco MLS,509887,37.7446334,-122.4315301
MLS Listing,Condo/Co-op,5800 3rd St #1420,SAN FRANCISCO,CA,94124,749000,2,2.0,SAN FRANCISCO,1086,,2010,1,500,Active,http://www.redfin.com/CA/San-Francisco/5800-3rd-St-94124/unit-1420/home/40625846,MLSListings,ML81828603,37.7250528,-122.3951255
MLS Listing,Single Family Residential,215 Brighton Ave,San Francisco,CA,94112,1388000,5,,San Francisco,2344,2813,1964,1,,Active,http://www.redfin.com/CA/San-Francisco/215-Brighton-Ave-94112/home/2034976,San Francisco MLS,421517044,37.7223768,-122.4554406
MLS Listing,Single Family Residential,1878 41st Ave,San Francisco,CA,94122,1288000,2,1.0,San Francisco,1075,3000,1950,1,,Active,http://www.redfin.com/CA/San-Francisco/1878-41st-Ave-94122/home/924093,San Francisco MLS,421517093,37.7517634,-122.4997183
MLS Listing,Condo/Co-op,240 Lombard St #229,San Francisco,CA,94111,549000,1,1.0,San Francisco,580,50188,1993,1,945,Active,http://www.redfin.com/CA/San-Francisco/240-Lombard-St-94111/unit-229/home/542333,San Francisco MLS,421517025,37.8042439,-122.4055041
MLS Listing,Single Family Residential,1830 Jackson St Unit F,San Francisco,CA,94109,3200000,3,3.0,San Francisco,2450,7657,1917,1,880,Active,http://www.redfin.com/CA/San-Francisco/1830-Jackson-St-94109/unit-F/home/174368480,San Francisco MLS,421516853,37.7939561,-122.4254455
MLS Listing,Multi-Family (2-4 Unit),424 Linden St,San Francisco,CA,94102,1500000,2,,San Francisco,2200,1399,1909,1,,Active,http://www.redfin.com/CA/San-Francisco/424-Linden-St-94102/home/576890,San Francisco MLS,421516174,37.7762564,-122.4250929
MLS Listing,Condo/Co-op,310 Cornwall St,San Francisco,CA,94118,1795000,3,2.0,San Francisco,1535,4855,2013,1,,Active,http://www.redfin.com/CA/San-Francisco/310-Cornwall-St-94118/home/69371302,San Francisco MLS,515789,37.7850576,-122.4627277
MLS Listing,Single Family Residential,1526 29th Ave,San Francisco,CA,94122,1298000,2,1.0,San Francisco,1225,2996,1927,1,,Active,http://www.redfin.com/CA/San-Francisco/1526-29th-Ave-94122/home/1279582,San Francisco MLS,510656,37.7588134,-122.4872999
MLS Listing,Single Family Residential,20 Santa Fe Ave,San Francisco,CA,94124,799000,3,2.0,San Francisco,1430,2417,1939,1,,Active,http://www.redfin.com/CA/San-Francisco/20-Santa-Fe-Ave-94124/home/2027842,San Francisco MLS,515649,37.734476,-122.4013529
MLS Listing,Single Family Residential,185 Maynard St,San Francisco,CA,94112,1059000,3,2.0,San Francisco,1555,2750,1913,1,,Active,http://www.redfin.com/CA/San-Francisco/185-Maynard-St-94112/home/1122553,San Francisco MLS,512098,37.7295354,-122.426388
MLS Listing,Condo/Co-op,6050 Geary Blvd #302,San Francisco,CA,94121,929000,3,2.0,Richmond,1029,,2000,2,363,Active,http://www.redfin.com/CA/San-Francisco/6050-Geary-Blvd-94121/unit-302/home/1713760,"bridgeMLS, Bay East AOR, or Contra Costa AOR",40936699,37.7804084,-122.484582
MLS Listing,Condo/Co-op,259 Clara St #202,San Francisco,CA,94107,1249000,2,2.0,San Francisco,1225,3970,2016,2,566,Active,http://www.redfin.com/CA/San-Francisco/259-Clara-St-94107/unit-202/home/173948898,San Francisco MLS,421517008,37.7783397,-122.4034459
MLS Listing,Multi-Family (5+ Unit),100 Terra Vista Ave,San Francisco,CA,94115,3999000,8,7.0,San Francisco,3271,4146,1954,2,,Active,http://www.redfin.com/CA/San-Francisco/100-Terra-Vista-Ave-94115/home/1959228,San Francisco MLS,515622,37.7816945,-122.4438265
MLS Listing,Condo/Co-op,1611 Birchwood Ct,San Francisco,CA,94134,818000,3,2.0,San Francisco,1200,16399,1990,2,441,Active,http://www.redfin.com/CA/San-Francisco/1611-Birchwood-Ct-94134/home/1755443,San Francisco MLS,421515934,37.70818,-122.425708
MLS Listing,Single Family Residential,123 Gambier St,SAN FRANCISCO,CA,94134,1179950,3,2.0,SAN FRANCISCO,1250,2996,1931,2,,Active,http://www.redfin.com/CA/San-Francisco/123-Gambier-St-94134/home/1455957,MLSListings,ML81828516,37.7277538,-122.4220167
MLS Listing,Condo/Co-op,555 Golden Gate Ave #306,San Francisco,CA,94102,998000,2,2.0,San Francisco,977,,2020,2,645,Active,http://www.redfin.com/CA/San-Francisco/555-Golden-Gate-Ave-94102/unit-306/home/174367692,San Francisco MLS,421516445,37.7808655,-122.4196054
MLS Listing,Multi-Family (5+ Unit),130 Acadia St,San Francisco,CA,94115,3550000,1,,San Francisco,7060,5000,1964,2,,Active,http://www.redfin.com/CA/San-Francisco/130-Acadia-St-94131/home/1680954,San Francisco MLS,421516925,37.7320873,-122.4372354
MLS Listing,Condo/Co-op,2100 Pacific Ave,San Francisco,CA,94115,7950000,5,3.5,San Francisco,5180,,1926,2,6208,Active,http://www.redfin.com/CA/San-Francisco/2100-Pacific-Ave-94115/Ph/home/174367296,San Francisco MLS,421516444,37.7941981,-122.4300563
MLS Listing,Condo/Co-op,2942 Polk St,San Francisco,CA,94109,1595000,2,2.0,San Francisco,1450,,1926,2,,Active,http://www.redfin.com/CA/San-Francisco/2942-Polk-St-94109/home/1554524,San Francisco MLS,421516845,37.804058,-122.4231319
MLS Listing,Single Family Residential,1011 Green St,San Francisco,CA,94133,3995000,4,2.5,San Francisco,3182,2696,1925,2,,Active,http://www.redfin.com/CA/San-Francisco/1011-Green-St-94133/home/1286959,San Francisco MLS,511193,37.7984552,-122.4158676
MLS Listing,Condo/Co-op,403 Main St Unit 705N,San Francisco,CA,94105,599000,0,1.0,San Francisco,493,29037,1997,2,548,Active,http://www.redfin.com/CA/San-Francisco/403-Main-St-94105/unit-705N/home/1933601,San Francisco MLS,515267,37.7880767,-122.3896032
MLS Listing,Condo/Co-op,195 7th St #410,San Francisco,CA,94103,420000,0,1.0,San Francisco,341,4500,1991,2,390,Active,http://www.redfin.com/CA/San-Francisco/195-7th-St-94103/unit-410/home/1463334,San Francisco MLS,421515874,37.7782751,-122.4094319
MLS Listing,Single Family Residential,341 San Fernando Way,San Francisco,CA,94127,1795000,5,4.0,San Francisco,2738,4029,1927,2,25,Active,http://www.redfin.com/CA/San-Francisco/341-San-Fernando-Way-94127/home/1884638,San Francisco MLS,421516434,37.731151,-122.4694351
MLS Listing,Single Family Residential,120 Santa Paula Ave,San Francisco,CA,94127,3295000,4,3.5,San Francisco,3596,4460,,2,178,Active,http://www.redfin.com/CA/San-Francisco/120-Santa-Paula-Ave-94127/home/2016730,San Francisco MLS,515820,37.7376437,-122.4634647
MLS Listing,Condo/Co-op,1001 17th St #303,San Francisco,CA,94107,749000,1,1.0,San Francisco,,9426,2016,2,438,Active,http://www.redfin.com/CA/San-Francisco/1001-17th-St-94107/unit-303/home/102135992,San Francisco MLS,513182,37.7650503,-122.3941335
MLS Listing,Condo/Co-op,400 Beale St #1310,San Francisco,CA,94105,798000,1,1.0,San Francisco,669,27581,2001,2,852,Active,http://www.redfin.com/CA/San-Francisco/400-Beale-St-94105/unit-1310/home/12399569,San Francisco MLS,513058,37.7869049,-122.3909202
MLS Listing,Condo/Co-op,517 Vermont St,San Francisco,CA,94107,898000,1,1.0,San Francisco,910,2500,1932,2,210,Active,http://www.redfin.com/CA/San-Francisco/517-Vermont-St-94107/home/40138880,San Francisco MLS,421516528,37.7631516,-122.4041739
MLS Listing,Single Family Residential,50 Liberty St,San Francisco,CA,94110,4995000,4,3.5,San Francisco,,2875,1888,2,,Active,http://www.redfin.com/CA/San-Francisco/50-Liberty-St-94110/home/712438,San Francisco MLS,421516739,37.757881,-122.422301
MLS Listing,Single Family Residential,109 Glenview Dr,San Francisco,CA,94131,1549000,3,2.0,San Francisco,1562,3062,1951,2,,Active,http://www.redfin.com/CA/San-Francisco/109-Glenview-Dr-94131/home/924934,San Francisco MLS,510608,37.7481896,-122.4478629
MLS Listing,Condo/Co-op,2448 Lombard St #409,San Francisco,CA,94123,998000,1,1.0,San Francisco,697,,2020,2,595,Active,http://www.redfin.com/CA/San-Francisco/2448-Lombard-St-94123/unit-409/home/174364683,San Francisco MLS,421516441,37.7993402,-122.4419772
MLS Listing,Condo/Co-op,1025 Minna St #7,San Francisco,CA,94103,895000,1,2.0,San Francisco,875,3921,2003,2,404,Active,http://www.redfin.com/CA/San-Francisco/1025-Minna-94103/unit-7/home/2063573,San Francisco MLS,513839,37.7734241,-122.4168616
MLS Listing,Condo/Co-op,270 Valencia St #205,San Francisco,CA,94103,495000,0,1.0,San Francisco,494,9578,2005,2,772,Active,http://www.redfin.com/CA/San-Francisco/270-Valencia-St-94103/unit-205/home/8190512,San Francisco MLS,513823,37.7685208,-122.4225934
MLS Listing,Condo/Co-op,630 Mason St #603,San Francisco,CA,94108,719000,1,1.0,San Francisco,750,,1927,2,611,Active,http://www.redfin.com/CA/San-Francisco/630-Mason-St-94108/unit-603/home/143851855,San Francisco MLS,421516436,37.7894484,-122.4100541
MLS Listing,Single Family Residential,2250 Bush St,San Francisco,CA,94115,3499000,4,3.5,San Francisco,3445,3438,1900,2,,Active,http://www.redfin.com/CA/San-Francisco/Bush-St-94109/home/1650753,San Francisco MLS,421516273,37.787115,-122.434278
MLS Listing,Single Family Residential,43 Prospect Ave,San Francisco,CA,94110,1649000,2,2.0,San Francisco,1446,,,2,,Active,http://www.redfin.com/CA/San-Francisco/43-Prospect-Ave-94110/home/1720274,San Francisco MLS,513739,37.7443488,-122.4179794
MLS Listing,Multi-Family (5+ Unit),121 - 125 Shotwell St,San Francisco,CA,94103,2400000,0,,San Francisco,4875,,,2,,Active,http://www.redfin.com/CA/San-Francisco/121-Shotwell-St-94103/home/1970643,San Francisco MLS,421516078,37.7664932,-122.4162011
MLS Listing,Multi-Family (2-4 Unit),559 27th St,San Francisco,CA,94131,3998000,8,5.0,San Francisco,3442,2848,1974,2,,Active,http://www.redfin.com/CA/San-Francisco/559-27th-St-94131/home/1310906,San Francisco MLS,511921,37.746414,-122.4327011
MLS Listing,Single Family Residential,108 Lapham Way,San Francisco,CA,94112,1200000,3,2.0,San Francisco,1278,3615,1951,2,,Active,http://www.redfin.com/CA/San-Francisco/108-Lapham-Way-94112/home/1265319,San Francisco MLS,421516635,37.7089226,-122.4277682
MLS Listing,Condo/Co-op,260 King St #487,San Francisco,CA,94107,1349000,2,2.0,San Francisco,1344,213232,2004,2,933,Active,http://www.redfin.com/CA/San-Francisco/260-King-St-94107/unit-487/home/11893208,San Francisco MLS,421516443,37.7776422,-122.3934181
MLS Listing,Single Family Residential,1572 Thomas Ave,San Francisco,CA,94124,998000,2,1.5,San Francisco,,2500,1915,2,,Active,http://www.redfin.com/CA/San-Francisco/1572-Thomas-Ave-94124/home/946769,San Francisco MLS,421516210,37.7303092,-122.3907248
MLS Listing,Single Family Residential,265 Santa Ana Ave,San Francisco,CA,94127,1698000,3,2.0,San Francisco,1885,3994,1921,2,10,Active,http://www.redfin.com/CA/San-Francisco/265-Santa-Ana-Ave-94127/home/700944,San Francisco MLS,515251,37.7322816,-122.4675777
MLS Listing,Condo/Co-op,580 Hayes St #404,San Francisco,CA,94102,999000,1,1.0,San Francisco,804,12020,2018,2,650,Active,http://www.redfin.com/CA/San-Francisco/580-Hayes-St-94102/unit-404/home/143844073,San Francisco MLS,512727,37.7766718,-122.4260058
MLS Listing,Condo/Co-op,1725 Noe St,San Francisco,CA,94131,1195000,2,1.0,San Francisco,1081,4598,1900,3,325,Active,http://www.redfin.com/CA/San-Francisco/1725-Noe-St-94131/home/113068845,San Francisco MLS,421516661,37.7413722,-122.4305592
MLS Listing,Condo/Co-op,403 Main St Unit 505N,San Francisco,CA,94105,639000,1,1.0,San Francisco,493,29037,1997,3,548,Active,http://www.redfin.com/CA/San-Francisco/403-Main-St-94105/unit-505N/home/1317492,San Francisco MLS,421516643,37.7880767,-122.3896032
MLS Listing,Single Family Residential,120 Broad St,San Francisco,CA,94112,1495000,5,4.0,San Francisco,1729,4375,1900,3,,Active,http://www.redfin.com/CA/San-Francisco/120-Broad-St-94112/home/1115223,San Francisco MLS,421516650,37.7133816,-122.4568748
MLS Listing,Single Family Residential,752 Head St,San Francisco,CA,94132,1249000,4,2.0,San Francisco,1411,2500,1944,3,,Active,http://www.redfin.com/CA/San-Francisco/752-Head-St-94132/home/1431705,San Francisco MLS,421516646,37.7206414,-122.464294
MLS Listing,Single Family Residential,253 Charter Oak Ave,San Francisco,CA,94124,1095000,6,3.0,San Francisco,2057,2495,1912,3,,Active,http://www.redfin.com/CA/San-Francisco/253-Charter-Oak-Ave-94124/home/751696,San Francisco MLS,421516636,37.7336306,-122.4041961
MLS Listing,Condo/Co-op,1601 Larkin St #105,San Francisco,CA,94109,995000,1,1.0,San Francisco,769,11368,2017,3,499,Active,http://www.redfin.com/CA/San-Francisco/1601-Larkin-St-94109/unit-105/home/167259030,San Francisco MLS,421516426,37.7927209,-122.4197824
MLS Listing,Condo/Co-op,1177 California #212,San Francisco,CA,94108,1095000,1,1.0,San Francisco,1056,31662,,3,1336,Active,http://www.redfin.com/CA/San-Francisco/1177-California-St-94108/unit-212/home/549710,San Francisco MLS,421516527,37.7910262,-122.4136476
MLS Listing,Townhouse,568 Hudson Ave,San Francisco,CA,94124,1210000,3,2.5,San Francisco,1527,1485,2019,3,313,Active,http://www.redfin.com/CA/San-Francisco/568-Hudson-Ave-94124/home/146950315,"bridgeMLS, Bay East AOR, or Contra Costa AOR",40936507,37.7292512,-122.3688071
MLS Listing,Multi-Family (2-4 Unit),7 Mayfair Dr,San Francisco,CA,94118,2450000,0,,San Francisco,3632,3772,1949,3,,Active,http://www.redfin.com/CA/San-Francisco/7-Mayfair-Dr-94118/home/1804491,San Francisco MLS,421516438,37.7859078,-122.4497773
MLS Listing,Multi-Family (2-4 Unit),1333 York St,SAN FRANCISCO,CA,94110,1499999,6,5.0,SAN FRANCISCO,2589,3000,1908,3,,Active,http://www.redfin.com/CA/San-Francisco/1333-York-St-94110/home/1933812,MLSListings,ML81828339,37.7506788,-122.4077042
MLS Listing,Single Family Residential,101 Marview Way,San Francisco,CA,94131,1250000,3,2.0,San Francisco,1274,2800,1958,3,2,Active,http://www.redfin.com/CA/San-Francisco/101-Marview-Way-94131/home/944630,San Francisco MLS,421516427,37.7542622,-122.4497537
MLS Listing,Condo/Co-op,181 27th St,San Francisco,CA,94110,1195000,2,1.0,San Francisco,1334,2849,1890,3,250,Active,http://www.redfin.com/CA/San-Francisco/181-27th-St-94110/home/52059232,San Francisco MLS,421516425,37.7469614,-122.4240708
MLS Listing,Single Family Residential,61 Burlwood Dr,San Francisco,CA,94127,995000,3,2.0,San Francisco,1529,3484,,3,,Active,http://www.redfin.com/CA/San-Francisco/61-Burlwood-Dr-94127/home/1165363,San Francisco MLS,421516296,37.7348371,-122.4539557
MLS Listing,Condo/Co-op,74 New Montgomery St #509,San Francisco,CA,94105,615000,0,1.0,San Francisco,486,17865,1914,3,840,Active,http://www.redfin.com/CA/San-Francisco/74-New-Montgomery-St-94105/unit-509/home/17305109,San Francisco MLS,514419,37.7874578,-122.4013098
MLS Listing,Condo/Co-op,2177 3rd St #415,San Francisco,CA,94107,1495000,2,2.0,San Francisco,1155,,2020,3,982,Active,http://www.redfin.com/CA/San-Francisco/2177-3rd-St-94107/unit-415/home/174358649,San Francisco MLS,514311,37.7622702,-122.3882952
MLS Listing,Condo/Co-op,2177 3rd St #609,San Francisco,CA,94107,995000,1,1.0,San Francisco,719,,2020,3,825,Active,http://www.redfin.com/CA/San-Francisco/2177-3rd-St-94107/unit-609/home/174358584,San Francisco MLS,514326,37.7622702,-122.3882952
MLS Listing,Condo/Co-op,1754 Bay St,San Francisco,CA,94123,3150000,3,3.5,San Francisco,2529,3281,1938,3,627,Active,http://www.redfin.com/CA/San-Francisco/1754-Bay-St-94123/home/144017327,San Francisco MLS,421516419,37.80289,-122.4358843
MLS Listing,Condo/Co-op,450 Hayes St Unit TH6,San Francisco,CA,94117,1499000,1,2.0,San Francisco,1121,,2016,3,937,Active,http://www.redfin.com/CA/San-Francisco/450-Hayes-St-94102/unit-TH6/home/174358556,San Francisco MLS,509870,37.7768993,-122.4240297
MLS Listing,Single Family Residential,149 Jules Ave,San Francisco,CA,94112,1099000,5,5.0,San Francisco,2100,4238,1920,3,,Active,http://www.redfin.com/CA/San-Francisco/149-Jules-Ave-94112/home/1457133,San Francisco MLS,421516338,37.7209415,-122.4614745
MLS Listing,Multi-Family (2-4 Unit),218 Winfield St,San Francisco,CA,94110,1799000,4,3.0,Bernal Heights,1997,1750,1905,3,,Active,http://www.redfin.com/CA/San-Francisco/218-Winfield-St-94110/home/761381,"bridgeMLS, Bay East AOR, or Contra Costa AOR",40936417,37.741747,-122.4192695
MLS Listing,Condo/Co-op,201 Harrison St #806,San Francisco,CA,94105,595000,0,1.0,South Beach,432,,1991,3,576,Active,http://www.redfin.com/CA/San-Francisco/201-Harrison-St-94105/unit-806/home/2008718,"bridgeMLS, Bay East AOR, or Contra Costa AOR",40936415,37.7875875,-122.3904715
MLS Listing,Condo/Co-op,3280 22nd St Unit C,San Francisco,CA,94110,1195000,2,2.0,San Francisco,1166,,2007,3,367,Active,http://www.redfin.com/CA/San-Francisco/3280-22nd-St-94110/unit-C/home/17305538,San Francisco MLS,512094,37.7554825,-122.4205234
MLS Listing,Condo/Co-op,4171 24th St #401,San Francisco,CA,94114,1695000,2,2.0,San Francisco,,,2018,3,470,Active,http://www.redfin.com/CA/San-Francisco/4171-24th-St-94114/unit-401/home/145604130,San Francisco MLS,510864,37.7510431,-122.4355665
MLS Listing,Condo/Co-op,1461 Broadway #401,San Francisco,CA,94109,1150000,2,2.0,San Francisco,1050,11174,1981,3,705,Active,http://www.redfin.com/CA/San-Francisco/1461-Broadway-94109/unit-401/home/1483404,San Francisco MLS,421516371,37.7957072,-122.4212625
MLS Listing,Condo/Co-op,8300 Oceanview Ter #401,San Francisco,CA,94132,599000,1,1.0,San Francisco,686,,2002,3,616,Active,http://www.redfin.com/CA/San-Francisco/8300-Oceanview-Ter-94132/unit-401/home/1441428,"bridgeMLS, Bay East AOR, or Contra Costa AOR",40936410,37.7104174,-122.4677028
MLS Listing,Condo/Co-op,690 Chestnut St #306,San Francisco,CA,94133,869000,2,2.0,San Francisco,954,15089,1997,4,706,Active,http://www.redfin.com/CA/San-Francisco/690-Chestnut-St-94133/unit-306/home/1995084,BAREIS,512806,37.8038387,-122.414563
MLS Listing,Single Family Residential,693 25Th Ave,San Francisco,CA,94121,1680000,4,4.0,Richmond Dist,2180,1873,1920,4,,Active,http://www.redfin.com/CA/San-Francisco/693-25th-Ave-94121/home/1289778,"bridgeMLS, Bay East AOR, or Contra Costa AOR",40936371,37.7765,-122.484726
MLS Listing,Condo/Co-op,2121 Webster St #110,San Francisco,CA,94115,4695000,3,4.0,San Francisco,2680,,2016,4,2409,Active,http://www.redfin.com/CA/San-Francisco/2121-Webster-St-94115/unit-110/home/144063549,San Francisco MLS,515424,37.7902671,-122.4331765
MLS Listing,Condo/Co-op,340 Sanchez St,San Francisco,CA,94114,1198000,2,1.0,San Francisco,1109,2500,,4,300,Active,http://www.redfin.com/CA/San-Francisco/340-Sanchez-St-94114/home/1107145,San Francisco MLS,514843,37.7636676,-122.4310607
MLS Listing,Multi-Family (5+ Unit),678 Haight St,San Francisco,CA,94117,2990000,5,3.0,San Francisco,5655,2750,1890,4,,Active,http://www.redfin.com/CA/San-Francisco/678-Haight-St-94117/home/174350276,San Francisco MLS,421516256,37.7719343,-122.4333891
MLS Listing,Multi-Family (2-4 Unit),3376 18Th St,San Francisco,CA,94110,1999000,2,1.0,Mission District,3000,2204,1920,4,,Active,http://www.redfin.com/CA/San-Francisco/3376-18th-St-94110/home/174349820,"bridgeMLS, Bay East AOR, or Contra Costa AOR",40936362,37.7620761,-122.4187868
MLS Listing,Multi-Family (2-4 Unit),3378 18Th St,San Francisco,CA,94110,1999000,4,3.0,Mission District,3275,1746,1947,4,,Active,http://www.redfin.com/CA/San-Francisco/3378-18th-St-94110/home/711135,"bridgeMLS, Bay East AOR, or Contra Costa AOR",40936360,37.7620489,-122.4188753
MLS Listing,Condo/Co-op,1 Federal St #5,San Francisco,CA,94107,815000,1,1.0,San Francisco,762,,2003,4,740,Active,http://www.redfin.com/CA/San-Francisco/1-Federal-St-94107/unit-5/home/1991209,San Francisco MLS,421516239,37.7839667,-122.3911119
MLS Listing,Condo/Co-op,400 Alemany Blvd #21,San Francisco,CA,94110,750000,2,2.0,San Francisco,868,24034,2003,4,360,Active,http://www.redfin.com/CA/San-Francisco/400-Alemany-Blvd-94110/unit-21/home/862232,San Francisco MLS,515832,37.7331425,-122.4145686
MLS Listing,Condo/Co-op,1348 Scott St Unit A,San Francisco,CA,94115,674000,1,1.0,San Francisco,653,,1986,4,615,Active,http://www.redfin.com/CA/San-Francisco/1348-Scott-St-94115/unit-A/home/102816969,San Francisco MLS,514658,37.7823661,-122.4374041
MLS Listing,Single Family Residential,1201 Sloat Blvd,San Francisco,CA,94132,1699000,3,3.0,San Francisco,2564,3646,1941,4,,Active,http://www.redfin.com/CA/San-Francisco/1201-Sloat-Blvd-94132/home/1337548,MetroList,421516186,37.7341053,-122.484024
MLS Listing,Condo/Co-op,110 Channel St #611,San Francisco,CA,94158,1525000,2,2.0,San Francisco,1160,,2017,4,914,Active,http://www.redfin.com/CA/San-Francisco/110-Channel-St-94158/unit-611/home/167383002,San Francisco MLS,510830,37.7751436,-122.3906212
MLS Listing,Condo/Co-op,88 Townsend St #409,San Francisco,CA,94107,899000,1,1.0,San Francisco,,37623,2004,4,584,Active,http://www.redfin.com/CA/San-Francisco/88-Townsend-St-94107/unit-409/home/12401580,San Francisco MLS,515385,37.781167,-122.3906969
MLS Listing,Condo/Co-op,818 Van Ness Ave #603,San Francisco,CA,94109,1198000,2,2.0,San Francisco,1181,,2008,4,713,Active,http://www.redfin.com/CA/San-Francisco/818-Van-Ness-Ave-94109/unit-603/home/40138158,San Francisco MLS,511567,37.7832423,-122.4204784
MLS Listing,Condo/Co-op,200 29th St #6,San Francisco,CA,94131,1675000,3,2.5,San Francisco,2067,10638,2004,4,537,Active,http://www.redfin.com/CA/San-Francisco/200-29th-St-94131/unit-6/home/12401960,San Francisco MLS,514822,37.7440171,-122.4248459
MLS Listing,Condo/Co-op,2200 Pacific Ave Unit 3B,San Francisco,CA,94115,1220000,1,1.5,San Francisco,1172,,1962,4,1498,Active,http://www.redfin.com/CA/San-Francisco/2200-Pacific-Ave-94115/unit-3B/home/1974101,San Francisco MLS,510739,37.7939819,-122.4317719
MLS Listing,Single Family Residential,770 26th Ave,San Francisco,CA,94121,1498000,3,2.0,San Francisco,1950,2996,1924,4,196,Active,http://www.redfin.com/CA/San-Francisco/770-26th-Ave-94121/unit-772/home/1237475,San Francisco MLS,421516159,37.7749579,-122.4851096
MLS Listing,Condo/Co-op,2120 Stockton #103,San Francisco,CA,94133,1298000,2,2.0,San Francisco,1430,,1980,4,988,Active,http://www.redfin.com/CA/San-Francisco/2120-Stockton-St-94133/unit-103/home/537975,San Francisco MLS,421515923,37.8055298,-122.4099596
MLS Listing,Single Family Residential,3179 Cesar Chavez,SAN FRANCISCO,CA,94110,3700000,8,7.0,SAN FRANCISCO,4935,4634,1900,4,,Active,http://www.redfin.com/CA/San-Francisco/3179-Cesar-Chavez-94110/home/753592,MLSListings,ML81828103,37.747871,-122.413105
MLS Listing,Multi-Family (2-4 Unit),2332 22nd Ave,San Francisco,CA,94116,1800000,4,2.0,San Francisco,3100,,1927,4,,Active,http://www.redfin.com/CA/San-Francisco/2332-22nd-Ave-94116/home/1548727,San Francisco MLS,515465,37.7441391,-122.4786617
MLS Listing,Single Family Residential,426 Detroit St,San Francisco,CA,94131,899000,1,1.0,San Francisco,900,1498,1947,4,,Active,http://www.redfin.com/CA/San-Francisco/426-Detroit-St-94131/home/692841,San Francisco MLS,515808,37.7311366,-122.4441693
MLS Listing,Condo/Co-op,1731 Hayes St,San Francisco,CA,94117,1595000,2,2.0,San Francisco,1363,3437,1904,5,300,Active,http://www.redfin.com/CA/San-Francisco/1731-Hayes-St-94117/home/597732,San Francisco MLS,514692,37.773803,-122.444913
MLS Listing,Condo/Co-op,151 Stoneridge Ln,San Francisco,CA,94134,699000,2,2.0,San Francisco,1068,,1994,5,437,Active,http://www.redfin.com/CA/San-Francisco/151-Stoneridge-Ln-94134/home/793876,"bridgeMLS, Bay East AOR, or Contra Costa AOR",40936292,37.71023,-122.426265
MLS Listing,Single Family Residential,216 Topeka Ave,San Francisco,CA,94124,1200000,4,2.0,San Francisco,1034,2208,1943,5,,Active,http://www.redfin.com/CA/San-Francisco/216-Topeka-Ave-94124/home/749489,MetroList,421516071,37.7328784,-122.3974586
MLS Listing,Single Family Residential,126 Rae Ave,San Francisco,CA,94112,799999,3,2.0,San Francisco,1125,2596,1928,5,,Active,http://www.redfin.com/CA/San-Francisco/126-Rae-Ave-94112/home/1488989,MetroList,515749,37.7114939,-122.4493018
MLS Listing,Single Family Residential,2345 25th St,SAN FRANCISCO,CA,94107,1198000,2,2.0,SAN FRANCISCO,1455,1250,1926,5,,Active,http://www.redfin.com/CA/San-Francisco/2345-25th-St-94107/home/739006,MLSListings,ML81828075,37.7518483,-122.4021494
MLS Listing,Single Family Residential,1525 Newhall St,San Francisco,CA,94124,798888,2,2.0,San Francisco,973,1667,1950,5,,Active,http://www.redfin.com/CA/San-Francisco/1525-Newhall-St-94124/home/748603,San Francisco MLS,515569,37.7346251,-122.3929778
MLS Listing,Condo/Co-op,601 Van Ness Ave #543,San Francisco,CA,94102,679000,1,1.0,San Francisco,709,,1982,5,909,Active,http://www.redfin.com/CA/San-Francisco/601-Van-Ness-Ave-94102/unit-543/home/1340580,San Francisco MLS,421516022,37.7813857,-122.4214063
MLS Listing,Condo/Co-op,3131 Divisadero St,San Francisco,CA,94123,1750000,2,1.5,San Francisco,1800,3453,1935,5,438,Active,http://www.redfin.com/CA/San-Francisco/3131-Divisadero-St-94123/home/39958058,BAREIS,515841,37.7985263,-122.44283
MLS Listing,Multi-Family (2-4 Unit),418 18th Ave,San Francisco,CA,94121,1495000,2,2.0,San Francisco,2775,2996,1915,5,,Active,http://www.redfin.com/CA/San-Francisco/418-18th-Ave-94121/home/2007776,San Francisco MLS,421515989,37.7799718,-122.4770855
MLS Listing,Single Family Residential,3565 Market St,San Francisco,CA,94131,1795000,4,3.0,San Francisco,1955,1772,1940,5,,Active,http://www.redfin.com/CA/San-Francisco/3565-Market-St-94131/home/1718601,San Francisco MLS,421515973,37.756486,-122.441004
MLS Listing,Multi-Family (2-4 Unit),3115 Noriega St,San Francisco,CA,94122,1050000,4,2.0,San Francisco,2596,1698,1955,5,,Active,http://www.redfin.com/CA/San-Francisco/3115-Noriega-St-94122/home/1960007,San Francisco MLS,515731,37.7531059,-122.4971797
MLS Listing,Condo/Co-op,537 Natoma St #403,San Francisco,CA,94103,431846,2,2.0,San Francisco,932,5399,2013,5,413,Active,http://www.redfin.com/CA/San-Francisco/537-Natoma-St-94103/unit-403/home/45451891,San Francisco MLS,421515948,37.7793833,-122.4084586
MLS Listing,Condo/Co-op,1000 3rd St #820,SAN FRANCISCO,CA,94158,1015000,1,1.0,SAN FRANCISCO,804,25000,2018,5,833,Active,http://www.redfin.com/CA/San-Francisco/1000-3rd-St-94158/unit-820/home/145279445,MLSListings,ML81828005,37.7752125,-122.3902276
MLS Listing,Single Family Residential,88 Stanford Heights Ave,San Francisco,CA,94127,1199000,3,2.5,San Francisco,1612,2548,1964,5,,Active,http://www.redfin.com/CA/San-Francisco/88-Stanford-Heights-Ave-94127/home/690404,San Francisco MLS,514542,37.7356873,-122.4498442
MLS Listing,Single Family Residential,2727 Vallejo St,San Francisco,CA,94123,6500000,5,5.5,San Francisco,4206,4194,1905,5,,Active,http://www.redfin.com/CA/San-Francisco/2727-Vallejo-St-94123/home/1244417,San Francisco MLS,513504,37.7942388,-122.4421857
MLS Listing,Multi-Family (2-4 Unit),1420 - 1424 Guerrero St,San Francisco,CA,94110,2198000,5,3.0,San Francisco,3200,3125,1900,5,,Active,http://www.redfin.com/CA/San-Francisco/1420-Guerrero-St-94110/home/174335351,San Francisco MLS,510954,37.7483857,-122.4227034
MLS Listing,Condo/Co-op,608 Peralta Ave,San Francisco,CA,94110,925000,2,1.0,San Francisco,873,1750,1959,5,200,Active,http://www.redfin.com/CA/San-Francisco/608-Peralta-Ave-94110/home/55244509,San Francisco MLS,515428,37.74302,-122.408916
MLS Listing,Condo/Co-op,900 Bush St #404,San Francisco,CA,94109,775000,2,2.0,San Francisco,800,37615,1982,5,1048,Active,http://www.redfin.com/CA/San-Francisco/900-Bush-St-94109/unit-404/home/1088965,San Francisco MLS,515812,37.7899451,-122.4127266
MLS Listing,Condo/Co-op,900 Bush St #518,San Francisco,CA,94109,575000,1,1.0,San Francisco,643,37516,1982,5,969,Active,http://www.redfin.com/CA/San-Francisco/900-Bush-St-94109/unit-518/home/554300,San Francisco MLS,515807,37.7899451,-122.4127266
MLS Listing,Multi-Family (5+ Unit),3548 Pierce St,San Francisco,CA,94123,4000000,2,,San Francisco,6324,2626,1927,5,,Active,http://www.redfin.com/CA/San-Francisco/3548-Pierce-St-94123/home/1715573,San Francisco MLS,514449,37.8032879,-122.439822
MLS Listing,Condo/Co-op,255 Berry St #511,San Francisco,CA,94158,1299000,2,2.0,San Francisco,,42959,2004,5,824,Active,http://www.redfin.com/CA/San-Francisco/255-Berry-St-94158/unit-511/home/1048025,San Francisco MLS,513120,37.7741864,-122.3947434
MLS Listing,Multi-Family (2-4 Unit),375 Haight St,San Francisco,CA,94102,3290000,6,5.0,San Francisco,3816,2021,1900,5,,Active,http://www.redfin.com/CA/San-Francisco/375-Haight-St-94102/home/174331957,San Francisco MLS,512708,37.7722964,-122.4283413
MLS Listing,Single Family Residential,32 Acton St,San Francisco,CA,94112,1399000,5,3.0,San Francisco,1820,1751,1948,5,,Active,http://www.redfin.com/CA/San-Francisco/32-Acton-St-94112/home/793131,San Francisco MLS,514825,37.7083012,-122.4525956
MLS Listing,Single Family Residential,60 Paramount Ter,San Francisco,CA,94118,1495000,2,2.0,San Francisco,1525,1966,1940,5,,Active,http://www.redfin.com/CA/San-Francisco/60-Paramount-Ter-94118/home/1484193,San Francisco MLS,514621,37.7762341,-122.4561229
MLS Listing,Condo/Co-op,2 Mint Plz #408,San Francisco,CA,94103,799000,1,1.0,San Francisco,739,7776,1926,5,842,Active,http://www.redfin.com/CA/San-Francisco/2-Mint-Plz-94103/unit-408/home/17306651,San Francisco MLS,512968,37.7831725,-122.407689
MLS Listing,Single Family Residential,875 Francisco St,San Francisco,CA,94109,15500000,4,4.5,San Francisco,6330,3576,1915,5,,Active,http://www.redfin.com/CA/San-Francisco/875-Francisco-St-94109/home/949892,San Francisco MLS,511906,37.8036803,-122.419539
MLS Listing,Single Family Residential,1510 Jackson St #2,San Francisco,CA,94109,768000,2,1.0,San Francisco,,,1908,6,290,Active,http://www.redfin.com/CA/San-Francisco/1510-Jackson-St-94109/unit-2/home/64750075,San Francisco MLS,515730,37.7944335,-122.4200719
MLS Listing,Condo/Co-op,1688 Pine St Unit W1002,San Francisco,CA,94109,1399000,2,2.0,San Francisco,955,35482,2016,6,775,Active,http://www.redfin.com/CA/San-Francisco/1688-Pine-St-94109/unit-W1002/home/105521507,San Francisco MLS,514859,37.789553,-122.4232788
MLS Listing,Single Family Residential,23 Madrid St,SAN FRANCISCO,CA,94112,2228988,5,3.5,SAN FRANCISCO,2300,2495,1915,6,,Active,http://www.redfin.com/CA/San-Francisco/23-Madrid-St-94112/home/1149954,MLSListings,ML81827886,37.728261,-122.4275366
MLS Listing,Single Family Residential,6040 Geary Blvd,San Francisco,CA,94121,1395000,4,2.0,San Francisco,3340,2495,1904,6,,Active,http://www.redfin.com/CA/San-Francisco/6040-Geary-Blvd-94121/home/174235048,San Francisco MLS,512331,37.7803508,-122.4844258
MLS Listing,Condo/Co-op,338 Spear St Unit 4H,San Francisco,CA,94105,850000,1,1.0,San Francisco,733,76210,2009,6,902,Active,http://www.redfin.com/CA/San-Francisco/338-Spear-St-94105/unit-4H/home/23424214,San Francisco MLS,515684,37.7894137,-122.3906433
MLS Listing,Condo/Co-op,32 Nido Ave,San Francisco,CA,94115,1645000,2,2.0,San Francisco,1496,3504,1948,6,350,Active,http://www.redfin.com/CA/San-Francisco/32-Nido-Ave-94115/home/45441933,San Francisco MLS,515618,37.7792749,-122.4459336
MLS Listing,Multi-Family (2-4 Unit),2864 22nd St,San Francisco,CA,94110,1999999,8,5.0,San Francisco,2849,2500,1900,7,,Active,http://www.redfin.com/CA/San-Francisco/2864-22nd-St-94110/home/174331003,San Francisco MLS,515482,37.75608,-122.4117479
MLS Listing,Single Family Residential,1402 Golden Gate Ave,San Francisco,CA,94115,1849000,4,3.0,San Francisco,2423,11243,1885,7,300,Active,http://www.redfin.com/CA/San-Francisco/1402-Golden-Gate-Ave-94115/home/1153773,San Francisco MLS,515265,37.779475,-122.433841
MLS Listing,Condo/Co-op,1000 3rd St #508,SAN FRANCISCO,CA,94158,1038000,1,1.0,SAN FRANCISCO,830,,2018,7,832,Active,http://www.redfin.com/CA/San-Francisco/1000-3rd-St-94158/unit-508/home/145405676,MLSListings,ML81827812,37.7752125,-122.3902276
MLS Listing,Single Family Residential,910 Potrero Ave,San Francisco,CA,94110,1250000,0,,San Francisco,2192,2500,1907,7,,Active,http://www.redfin.com/CA/San-Francisco/910-Potrero-Ave-94110/home/174235051,San Francisco MLS,515567,37.7574381,-122.4070817
MLS Listing,Single Family Residential,67 Montana St,SAN FRANCISCO,CA,94112,999950,3,2.0,SAN FRANCISCO,1201,3125,1949,7,,Active,http://www.redfin.com/CA/San-Francisco/67-Montana-St-94112/home/2032526,MLSListings,ML81827807,37.7164898,-122.4553379
MLS Listing,Condo/Co-op,6 Mint Plz Unit 201A,San Francisco,CA,94103,699000,1,1.0,San Francisco,589,,1900,7,717,Active,http://www.redfin.com/CA/San-Francisco/6-Mint-Plz-94103/unit-201A/home/21965814,San Francisco MLS,514877,37.7830353,-122.4078711
MLS Listing,Condo/Co-op,260 King St #553,SAN FRANCISCO,CA,94107,599999,1,1.0,SAN FRANCISCO,556,,2004,7,799,Active,http://www.redfin.com/CA/San-Francisco/260-King-St-94107/unit-553/home/8191022,MLSListings,ML81827802,37.7776422,-122.3934181
MLS Listing,Condo/Co-op,420 Mission Bay Blvd #704,San Francisco,CA,94158,1160000,1,1.0,San Francisco,943,122891,2012,7,828,Active,http://www.redfin.com/CA/San-Francisco/420-Mission-Bay-Blvd-N-94158/unit-704/home/40625829,San Francisco MLS,515432,37.7715936,-122.3885893
MLS Listing,Condo/Co-op,401 Harrison St Unit 38A,San Francisco,CA,94105,1195000,1,,San Francisco,840,56023,2014,7,1247,Active,http://www.redfin.com/CA/San-Francisco/401-Harrison-St-94105/unit-38A/home/144064306,San Francisco MLS,515533,37.7864989,-122.3921487
MLS Listing,Condo/Co-op,101 Crescent Way #2408,San Francisco,CA,94134,799000,2,2.0,San Francisco,984,42325,2001,7,532,Active,http://www.redfin.com/CA/San-Francisco/101-Crescent-Way-94134/unit-2408/home/22878439,BAREIS,515378,37.7109188,-122.3892491
MLS Listing,Single Family Residential,1855 Greenwich St,San Francisco,CA,94123,3700000,5,4.5,San Francisco,3274,2199,1900,7,,Active,http://www.redfin.com/CA/San-Francisco/1855-Greenwich-St-94123/home/1609724,San Francisco MLS,515510,37.7994723,-122.4301678
MLS Listing,Condo/Co-op,338 Main St Unit 4D,San Francisco,CA,94105,915000,1,1.0,San Francisco,873,,2016,7,1125,Active,http://www.redfin.com/CA/San-Francisco/338-Main-St-94105/unit-4D/home/110052602,San Francisco MLS,511568,37.7886733,-122.3914178
MLS Listing,Condo/Co-op,283 Randall St,San Francisco,CA,94131,1349000,2,2.0,San Francisco,1314,2500,1963,7,433,Active,http://www.redfin.com/CA/San-Francisco/283-Randall-St-94131/home/17305443,San Francisco MLS,514707,37.740366,-122.429607
MLS Listing,Vacant Land,731 Peralta Ave,SAN FRANCISCO,CA,94110,536000,,,SAN FRANCISCO,,2766,,8,,Active,http://www.redfin.com/CA/San-Francisco/731-Peralta-Ave-94110/unit-V/home/110063855,MLSListings,ML81827773,37.740676,-122.4085434
MLS Listing,Single Family Residential,2518 14th Ave,San Francisco,CA,94127,2695000,4,3.5,San Francisco,2830,5125,1928,8,,Active,http://www.redfin.com/CA/San-Francisco/2518-14th-Ave-94127/unit-2518A/home/1564284,San Francisco MLS,514685,37.7410307,-122.4698773
MLS Listing,Single Family Residential,130 Retiro Way,San Francisco,CA,94123,3995000,4,4.0,San Francisco,2770,2635,1963,8,,Active,http://www.redfin.com/CA/San-Francisco/130-Retiro-Way-94123/home/2030418,San Francisco MLS,514285,37.8055232,-122.4378547
MLS Listing,Single Family Residential,2149 Jackson St #2149,San Francisco,CA,94115,2500000,2,3.0,San Francisco,,,1936,8,,Active,http://www.redfin.com/CA/San-Francisco/2149-Jackson-St-94115/unit-2149/home/174327087,San Francisco MLS,510397,37.792727,-122.430398
MLS Listing,Multi-Family (2-4 Unit),20 Oakwood St,San Francisco,CA,94110,2195000,4,1.0,San Francisco,3160,1929,1926,8,,Active,http://www.redfin.com/CA/San-Francisco/20-Oakwood-St-94110/home/1003958,San Francisco MLS,515051,37.7610672,-122.4252679
MLS Listing,Condo/Co-op,8 Jordan Ave #12,San Francisco,CA,94118,699000,1,1.0,San Francisco,,6496,1920,8,464,Active,http://www.redfin.com/CA/San-Francisco/8-Jordan-Ave-94118/unit-12/home/17318367,San Francisco MLS,515331,37.7857924,-122.4566401
MLS Listing,Condo/Co-op,2030 3rd St #5,San Francisco,CA,94107,879000,1,2.0,San Francisco,888,7725,1999,8,552,Active,http://www.redfin.com/CA/San-Francisco/2030-3rd-St-94107/unit-5/home/12397272,San Francisco MLS,515384,37.7636598,-122.3891338
MLS Listing,Multi-Family (2-4 Unit),66 Alpine Ter,San Francisco,CA,94117,2695000,5,2.0,San Francisco,3150,2247,,8,,Active,http://www.redfin.com/CA/San-Francisco/66-Alpine-Ter-94117/home/174325650,San Francisco MLS,513354,37.76946,-122.4377678
MLS Listing,Multi-Family (2-4 Unit),2335 Kirkham St,San Francisco,CA,94122,1488888,1,,San Francisco,1850,1341,1939,8,,Active,http://www.redfin.com/CA/San-Francisco/2335-Kirkham-St-94122/home/174325520,San Francisco MLS,515224,37.7593202,-122.486146
MLS Listing,Condo/Co-op,788 Minna St #305,San Francisco,CA,94103,699000,1,1.0,San Francisco,664,5427,2011,8,650,Active,http://www.redfin.com/CA/San-Francisco/788-Minna-St-94103/unit-305/home/40134727,San Francisco MLS,515333,37.7760486,-122.4141237
MLS Listing,Condo/Co-op,1045 Mason St #101,San Francisco,CA,94108,1395000,2,2.0,San Francisco,1428,8279,1993,8,1188,Active,http://www.redfin.com/CA/San-Francisco/1045-Mason-St-94108/unit-101/home/148067909,San Francisco MLS,512773,37.793232,-122.411466
MLS Listing,Single Family Residential,164 San Carlos St,San Francisco,CA,94110,2497000,3,3.0,San Francisco,1942,1916,1907,8,,Active,http://www.redfin.com/CA/San-Francisco/164-San-Carlos-St-94110/home/2034295,San Francisco MLS,515256,37.7607349,-122.4202457
MLS Listing,Condo/Co-op,425 14th St #3,San Francisco,CA,94103,1349000,2,2.0,San Francisco,,3250,2001,8,598,Active,http://www.redfin.com/CA/San-Francisco/425-14th-St-94103/unit-3/home/856961,San Francisco MLS,515222,37.767836,-122.4228034
MLS Listing,Condo/Co-op,192 Summit Way,San Francisco,CA,94132,1375000,3,3.0,San Francisco,1839,1114,2015,8,263,Active,http://www.redfin.com/CA/San-Francisco/192-Summit-Way-94132/home/109464570,San Francisco MLS,515283,37.715628,-122.4764681
MLS Listing,Condo/Co-op,256 Presidio Ave #1,San Francisco,CA,94115,1200000,2,1.5,San Francisco,964,2986,1902,8,400,Active,http://www.redfin.com/CA/San-Francisco/256-Presidio-Ave-94115/unit-1/home/1227737,BAREIS,512725,37.7893232,-122.4469036
MLS Listing,Condo/Co-op,105 Palm Ave #7,SAN FRANCISCO,CA,94118,1100000,2,1.0,SAN FRANCISCO,1233,,1900,8,570,Active,http://www.redfin.com/CA/San-Francisco/105-Palm-Ave-94118/unit-7/home/173406211,MLSListings,ML81827713,37.7837043,-122.458268
MLS Listing,Single Family Residential,2709 Baker St,San Francisco,CA,94123,1395000,2,2.0,San Francisco,1320,1454,,8,,Active,http://www.redfin.com/CA/San-Francisco/2709-Baker-St-94123/home/1974630,San Francisco MLS,515298,37.7959705,-122.4456086
MLS Listing,Single Family Residential,1818 8th Ave,San Francisco,CA,94122,2995000,4,4.0,San Francisco,3169,1420,1928,8,,Active,http://www.redfin.com/CA/San-Francisco/1818-8th-Ave-94122/home/1819346,San Francisco MLS,515107,37.754353,-122.4643603
MLS Listing,Multi-Family (2-4 Unit),2711 Baker St,San Francisco,CA,94123,3795000,5,,San Francisco,3276,1454,1940,8,,Active,http://www.redfin.com/CA/San-Francisco/2711-Baker-St-94123/home/174323595,San Francisco MLS,515289,37.7959968,-122.4455959
MLS Listing,Condo/Co-op,128 Morris St #5,San Francisco,CA,94107,825000,1,1.5,San Francisco,922,,2001,8,592,Active,http://www.redfin.com/CA/San-Francisco/128-Morris-St-94107/unit-5/home/12397396,San Francisco MLS,511960,37.7760435,-122.4017064
MLS Listing,Condo/Co-op,3131 Pierce St #208,San Francisco,CA,94123,1695000,2,2.0,San Francisco,1044,,,8,1055,Active,http://www.redfin.com/CA/San-Francisco/3131-Pierce-St-94123/unit-208/home/174323591,San Francisco MLS,515272,37.7989485,-122.4394894
MLS Listing,Condo/Co-op,1412 Golden Gate Ave,San Francisco,CA,94115,1710000,4,3.0,San Francisco,2648,11243,1885,8,300,Active,http://www.redfin.com/CA/San-Francisco/1412-Golden-Gate-Ave-94115/home/1852597,San Francisco MLS,515282,37.77943,-122.434147
MLS Listing,Single Family Residential,86 Ord St,San Francisco,CA,94114,5500000,5,5.0,San Francisco,3860,2722,1964,8,,Active,http://www.redfin.com/CA/San-Francisco/86-Ord-St-94114/home/148075118,San Francisco MLS,511255,37.7624659,-122.4404088
MLS Listing,Single Family Residential,80 Santa Cruz Ave,San Francisco,CA,94112,999000,2,1.0,Ingelside Height,875,2613,1955,8,,Active,http://www.redfin.com/CA/San-Francisco/80-Santa-Cruz-Ave-94112/home/948661,"bridgeMLS, Bay East AOR, or Contra Costa AOR",40935950,37.7084804,-122.4659303
MLS Listing,Condo/Co-op,1257 Vallejo St Unit A,San Francisco,CA,94109,2575000,3,2.0,San Francisco,1868,3805,1997,8,150,Active,http://www.redfin.com/CA/San-Francisco/1257-Vallejo-St-94109/unit-A/home/1995159,San Francisco MLS,514541,37.7972284,-122.4179105
MLS Listing,Single Family Residential,2889 Pacific Ave,San Francisco,CA,94115,7200000,6,6.5,San Francisco,7300,8934,1890,8,,Active,http://www.redfin.com/CA/San-Francisco/2889-Pacific-Ave-94115/home/585368,San Francisco MLS,512114,37.7921175,-122.442787
MLS Listing,Condo/Co-op,701 Minna St #6,San Francisco,CA,94103,875000,1,1.5,San Francisco,1173,9654,1999,8,595,Active,http://www.redfin.com/CA/San-Francisco/701-Minna-94103/unit-6/home/12395756,San Francisco MLS,514256,37.7767134,-122.4127391
MLS Listing,Single Family Residential,3316 19th St,San Francisco,CA,94110,1889000,3,4.0,San Francisco,2045,1200,1900,8,,Active,http://www.redfin.com/CA/San-Francisco/3316-19th-St-94110/home/1361602,San Francisco MLS,514860,37.760553,-122.417482
MLS Listing,Single Family Residential,4068 Folsom St,San Francisco,CA,94110,2098000,3,4.0,San Francisco,2300,1750,1944,8,,Active,http://www.redfin.com/CA/San-Francisco/4068-Folsom-St-94110/home/1362518,San Francisco MLS,513911,37.736225,-122.4137539
MLS Listing,Condo/Co-op,2758 Baker St,San Francisco,CA,94123,3290000,3,3.0,San Francisco,2065,1411,1900,8,,Active,http://www.redfin.com/CA/San-Francisco/2758-Baker-St-94123/home/40629435,San Francisco MLS,514286,37.7966471,-122.4453184
MLS Listing,Condo/Co-op,555 4th St #734,San Francisco,CA,94107,699000,1,1.0,San Francisco,580,,2006,8,603,Active,http://www.redfin.com/CA/San-Francisco/555-4th-St-94107/unit-734/home/12402330,San Francisco MLS,512134,37.7794218,-122.3967124
MLS Listing,Single Family Residential,875 Union St,San Francisco,CA,94133,1695000,3,2.0,San Francisco,1715,,1912,8,,Active,http://www.redfin.com/CA/San-Francisco/875-Union-St-94133/home/173171020,San Francisco MLS,513291,37.7996868,-122.4136613
MLS Listing,Single Family Residential,877 Union St,San Francisco,CA,94133,2395000,3,2.0,San Francisco,1970,,1912,8,,Active,http://www.redfin.com/CA/San-Francisco/877-Union-St-94133/unit-877/home/173087467,San Francisco MLS,513290,37.7996838,-122.4136847
MLS Listing,Single Family Residential,282 Moscow St,San Francisco,CA,94112,995000,3,2.0,San Francisco,1025,1873,1949,8,,Active,http://www.redfin.com/CA/San-Francisco/282-Moscow-St-94112/home/774415,San Francisco MLS,513392,37.7232343,-122.4264177
MLS Listing,Single Family Residential,873 Union St,San Francisco,CA,94133,2195000,4,3.0,San Francisco,2090,,1912,8,,Active,http://www.redfin.com/CA/San-Francisco/873-Union-St-94133/home/1339222,San Francisco MLS,513288,37.7996521,-122.41363
MLS Listing,Condo/Co-op,2932 Washington St,San Francisco,CA,94115,2195000,3,2.0,San Francisco,1931,,1910,8,310,Active,http://www.redfin.com/CA/San-Francisco/2932-Washington-St-94115/home/69371391,San Francisco MLS,511439,37.7908699,-122.4415283
MLS Listing,Condo/Co-op,2130 24th St,San Francisco,CA,94107,1495000,3,2.0,San Francisco,1535,,2006,8,400,Active,http://www.redfin.com/CA/San-Francisco/2130-24th-St-94107/unit-B/home/17304601,San Francisco MLS,512225,37.753507,-122.401133
MLS Listing,Condo/Co-op,718 Long Bridge St #323,San Francisco,CA,94158,1050000,1,1.0,San Francisco,880,,2016,8,1100,Active,http://www.redfin.com/CA/San-Francisco/718-Long-Bridge-St-94158/unit-323/home/109278462,San Francisco MLS,511721,37.7714717,-122.3945434
MLS Listing,Single Family Residential,246 Farallones St,San Francisco,CA,94112,999918,0,3.0,San Francisco,2290,3123,1926,9,,Active,http://www.redfin.com/CA/San-Francisco/246-Farallones-St-94112/home/827047,"bridgeMLS, Bay East AOR, or Contra Costa AOR",40935916,37.7142422,-122.4608554
MLS Listing,Condo/Co-op,318 Main St Unit 6H,San Francisco,CA,94105,1729000,2,2.0,San Francisco,1434,,2015,9,1260,Active,http://www.redfin.com/CA/San-Francisco/318-Main-St-94105/unit-6H/home/109464573,San Francisco MLS,514886,37.789054,-122.3917187
MLS Listing,Single Family Residential,254 Jules Ave,San Francisco,CA,94112,1195000,3,1.0,San Francisco,950,2809,1922,9,,Active,http://www.redfin.com/CA/San-Francisco/254-Jules-Ave-94112/home/1559934,San Francisco MLS,515147,37.7228475,-122.4609991
MLS Listing,Condo/Co-op,2829 25th St #2,San Francisco,CA,94110,1525000,2,2.0,San Francisco,1317,,2020,9,350,Active,http://www.redfin.com/CA/San-Francisco/2829-25th-St-94110/unit-2/home/173681039,San Francisco MLS,515161,37.7510579,-122.4067261
MLS Listing,Multi-Family (2-4 Unit),230 Divisadero St,San Francisco,CA,94117,1795000,9,3.0,San Francisco,4500,2628,1885,9,,Active,http://www.redfin.com/CA/San-Francisco/230-Divisadero-St-94117/home/174317302,San Francisco MLS,512476,37.7709496,-122.4367293
MLS Listing,Condo/Co-op,2145 Franklin St #5,SAN FRANCISCO,CA,94109,1624500,3,2.0,SAN FRANCISCO,1810,,1917,9,600,Active,http://www.redfin.com/CA/San-Francisco/2145-Franklin-St-94109/unit-5/home/1030194,MLSListings,ML81827624,37.7943509,-122.4250239
MLS Listing,Condo/Co-op,10 Innes Ct #204,San Francisco,CA,94124,849000,2,2.0,San Francisco,1020,,2018,9,630,Active,http://www.redfin.com/CA/San-Francisco/10-Innes-Ct-94124/unit-204/home/167058359,"bridgeMLS, Bay East AOR, or Contra Costa AOR",40935888,37.7280682,-122.3679965
MLS Listing,Single Family Residential,3526 19th St,San Francisco,CA,94110,4950000,4,5.0,San Francisco,3210,2500,2002,9,,Active,http://www.redfin.com/CA/San-Francisco/3526-19th-St-94110/home/173631809,San Francisco MLS,514980,37.7602357,-122.4221026
MLS Listing,Single Family Residential,78 Garnett Ter,San Francisco,CA,94124,848000,2,2.0,San Francisco,1200,1230,1996,9,168,Active,http://www.redfin.com/CA/San-Francisco/78-Garnett-Ter-94124/home/2008874,San Francisco MLS,514719,37.7326867,-122.3815843
MLS Listing,Condo/Co-op,401 Harrison St Unit 21E,San Francisco,CA,94105,2100000,2,2.0,San Francisco,1241,,2014,9,1355,Active,http://www.redfin.com/CA/San-Francisco/401-Harrison-St-94105/unit-21E/home/144064217,San Francisco MLS,515021,37.7864989,-122.3921487
MLS Listing,Condo/Co-op,2200 Sacramento #1504,San Francisco,CA,94115,1595000,1,1.0,San Francisco,916,17550,1964,9,723,Active,http://www.redfin.com/CA/San-Francisco/2200-Sacramento-St-94115/unit-1504/home/567551,San Francisco MLS,515088,37.7906814,-122.4294984
MLS Listing,Condo/Co-op,181 Fremont Unit 61D,San Francisco,CA,94105,3800000,2,2.0,San Francisco,1637,,2018,9,2738,Active,http://www.redfin.com/CA/San-Francisco/181-Fremont-St-94105/unit-61D/home/164229219,San Francisco MLS,515063,37.7898082,-122.3953565
MLS Listing,Multi-Family (2-4 Unit),66 Laussat St,San Francisco,CA,94102,1275000,4,2.0,San Francisco,1870,977,1900,9,,Active,http://www.redfin.com/CA/San-Francisco/66-Laussat-St-94102/home/18248729,San Francisco MLS,511983,37.7720673,-122.428198
MLS Listing,Condo/Co-op,39 San Carlos St #201,San Francisco,CA,94110,1595000,4,3.0,San Francisco,1353,2000,2015,9,344,Active,http://www.redfin.com/CA/San-Francisco/39-San-Carlos-St-94110/unit-201/home/144063806,San Francisco MLS,515038,37.7621585,-122.4199574
MLS Listing,Condo/Co-op,555 Golden Gate Ave #203,San Francisco,CA,94102,649000,1,1.0,San Francisco,568,,2021,9,553,Active,http://www.redfin.com/CA/San-Francisco/555-Golden-Gate-Ave-94102/unit-203/home/174314880,San Francisco MLS,514901,37.7808655,-122.4196054
MLS Listing,Multi-Family (2-4 Unit),1701 - 1703 Broderick St,San Francisco,CA,94115,1650000,4,2.0,San Francisco,1770,2395,1910,9,,Active,http://www.redfin.com/CA/San-Francisco/1701-Broderick-St-94115/home/1341045,San Francisco MLS,514708,37.7861273,-122.4420544
MLS Listing,Single Family Residential,143 Flood Ave,San Francisco,CA,94131,2495000,4,5.0,San Francisco,2983,2809,1908,9,,Active,http://www.redfin.com/CA/San-Francisco/143-Flood-Ave-94131/home/1377869,San Francisco MLS,514981,37.7297088,-122.4430303
MLS Listing,Single Family Residential,170 Upper Ter,San Francisco,CA,94117,4790000,3,3.0,San Francisco,3205,2439,1916,9,,Active,http://www.redfin.com/CA/San-Francisco/170-Upper-Ter-94117/home/934320,San Francisco MLS,514807,37.7644975,-122.4442528
MLS Listing,Condo/Co-op,52 Innes Ct #201,San Francisco,CA,94124,899000,2,2.0,San Francisco,1080,,2017,9,640,Active,http://www.redfin.com/CA/San-Francisco/52-Innes-Ct-94124/unit-201/home/168676144,"bridgeMLS, Bay East AOR, or Contra Costa AOR",40935840,37.7276224,-122.3674287
MLS Listing,Multi-Family (2-4 Unit),111A Fillmore St,San Francisco,CA,94117,2295000,10,1.0,San Francisco,4320,1950,1910,9,,Active,http://www.redfin.com/CA/San-Francisco/111a-Fillmore-St-94117/home/172622272,San Francisco MLS,514977,37.7704828,-122.4303335
MLS Listing,Condo/Co-op,27 Orben Pl,San Francisco,CA,94115,980000,1,1.0,San Francisco,,,,9,405,Active,http://www.redfin.com/CA/San-Francisco/27-Orben-Pl-94115/home/1539104,San Francisco MLS,513910,37.7884144,-122.4331139
MLS Listing,Single Family Residential,152 Farragut Ave,San Francisco,CA,94112,1100000,4,2.0,San Francisco,1900,2304,1935,9,,Active,http://www.redfin.com/CA/San-Francisco/152-Farragut-Ave-94112/home/938883,San Francisco MLS,514966,37.7117817,-122.4513022
MLS Listing,Condo/Co-op,2001 Mcallister St #153,San Francisco,CA,94118,1068000,2,2.0,San Francisco,,98109,2002,9,801,Active,http://www.redfin.com/CA/San-Francisco/2001-McAllister-St-94118/unit-153/home/12399952,San Francisco MLS,514895,37.7763812,-122.4456902
MLS Listing,Single Family Residential,319 Lexington St,San Francisco,CA,94110,879000,2,1.0,San Francisco,,1650,1876,9,,Active,http://www.redfin.com/CA/San-Francisco/319-Lexington-St-94110/home/174313488,San Francisco MLS,512324,37.7582143,-122.4202664
MLS Listing,Multi-Family (2-4 Unit),52 Mars St,SAN FRANCISCO,CA,94114,1395000,3,2.0,SAN FRANCISCO,2075,2500,1900,9,,Active,http://www.redfin.com/CA/San-Francisco/52-Mars-St-94114/home/1574399,MLSListings,ML81827528,37.761172,-122.4448107
MLS Listing,Condo/Co-op,51 Innes Ct #312,San Francisco,CA,94124,899000,2,2.0,San Francisco,1080,,2017,9,654,Active,http://www.redfin.com/CA/San-Francisco/51-Innes-Ct-94124/unit-312/home/144879677,"bridgeMLS, Bay East AOR, or Contra Costa AOR",40935818,37.7272117,-122.367848
MLS Listing,Single Family Residential,119 Lobos St,San Francisco,CA,94112,1298000,3,3.0,San Francisco,1652,3123,1908,9,,Active,http://www.redfin.com/CA/San-Francisco/119-Lobos-St-94112/home/1728866,San Francisco MLS,512366,37.7147361,-122.4568306
MLS Listing,Single Family Residential,1176 Union St,San Francisco,CA,94109,1450000,2,2.0,San Francisco,,,1908,9,350,Active,http://www.redfin.com/CA/San-Francisco/1176-Union-St-94109/home/173226165,San Francisco MLS,514910,37.7993552,-122.418682
MLS Listing,Single Family Residential,1174 Union St,San Francisco,CA,94109,1350000,2,2.0,San Francisco,,,1908,9,350,Active,http://www.redfin.com/CA/San-Francisco/1174-Union-St-94109/home/173226146,San Francisco MLS,514908,37.7994213,-122.4186122
MLS Listing,Condo/Co-op,177 Townsend St #926,SAN FRANCISCO,CA,94107,858000,1,1.0,SAN FRANCISCO,659,,2007,9,706,Active,http://www.redfin.com/CA/San-Francisco/177-Townsend-St-94107/unit-926/home/41363783,MLSListings,ML81824498,37.7791526,-122.3919931
MLS Listing,Condo/Co-op,1160 Mission St #2203,San Francisco,CA,94103,799000,1,1.0,San Francisco,745,43557,2008,9,802,Active,http://www.redfin.com/CA/San-Francisco/1160-Mission-St-94103/unit-2203/home/17304431,San Francisco MLS,514782,37.7787037,-122.4126341
MLS Listing,Single Family Residential,1172 Union St,San Francisco,CA,94109,1199000,2,2.0,San Francisco,,,1908,9,,Active,http://www.redfin.com/CA/San-Francisco/1172-Union-St-94109/home/1831016,San Francisco MLS,514882,37.7994443,-122.4186085
MLS Listing,Single Family Residential,602 Mississippi St,San Francisco,CA,94107,1780000,2,2.5,San Francisco,,2495,,9,,Active,http://www.redfin.com/CA/San-Francisco/602-Mississippi-St-94107/home/1526832,San Francisco MLS,514878,37.7588653,-122.3945418
MLS Listing,Condo/Co-op,501 Crescent Way #5305,San Francisco,CA,94134,699000,2,2.0,San Francisco,1054,,2006,9,570,Active,http://www.redfin.com/CA/San-Francisco/501-Crescent-Way-94134/unit-5305/home/12402357,San Francisco MLS,511465,37.7119288,-122.3886055
MLS Listing,Condo/Co-op,514 Church St,San Francisco,CA,94114,1595000,3,1.0,San Francisco,1675,,1900,9,350,Active,http://www.redfin.com/CA/San-Francisco/514-Church-St-94114/home/23424262,San Francisco MLS,514873,37.7631942,-122.4286037
MLS Listing,Single Family Residential,811 Carolina St,San Francisco,CA,94107,4500000,5,4.0,San Francisco,3565,2500,1911,9,,Active,http://www.redfin.com/CA/San-Francisco/811-Carolina-St-94107/home/732219,San Francisco MLS,511554,37.7585044,-122.399717
MLS Listing,Multi-Family (2-4 Unit),537 Oak St,San Francisco,CA,94102,2995000,10,3.0,San Francisco,4440,2178,1900,9,,Active,http://www.redfin.com/CA/San-Francisco/537-Oak-St-94102/home/174311899,San Francisco MLS,514173,37.7741907,-122.4282171
MLS Listing,Single Family Residential,3311 Cesar Chavez,San Francisco,CA,94110,1075000,2,2.0,San Francisco,1030,,1905,9,570,Active,http://www.redfin.com/CA/San-Francisco/3311-Cesar-Chavez-94110/unit-A/home/172484031,San Francisco MLS,514458,37.7479776,-122.4162691
MLS Listing,Single Family Residential,3307 Cesar Chavez Unit A,San Francisco,CA,94110,1025000,2,2.0,San Francisco,985,,1905,9,570,Active,http://www.redfin.com/CA/San-Francisco/3307-Cesar-Chavez-94110/unit-A/home/174311845,San Francisco MLS,514337,37.7479788,-122.4162163
MLS Listing,Multi-Family (2-4 Unit),1426 - 1428 Cabrillo St,San Francisco,CA,94118,1995000,4,3.0,San Francisco,3017,3009,1921,9,,Active,http://www.redfin.com/CA/San-Francisco/1426-Cabrillo-St-94118/home/2021251,San Francisco MLS,514510,37.7751748,-122.4741168
MLS Listing,Condo/Co-op,77 Van Ness Ave #609,San Francisco,CA,94102,690000,1,1.0,San Francisco,,,2009,9,422,Active,http://www.redfin.com/CA/San-Francisco/77-Van-Ness-Ave-94102/unit-609/home/40138552,San Francisco MLS,514255,37.7760628,-122.4198501
MLS Listing,Condo/Co-op,1099 Mississippi St #1,San Francisco,CA,94107,1099000,3,2.0,San Francisco,1478,10306,1998,9,600,Active,http://www.redfin.com/CA/San-Francisco/1099-Mississippi-St-94107/unit-1/home/1396573,San Francisco MLS,513268,37.7527269,-122.3933307
MLS Listing,Single Family Residential,930 Anza St,San Francisco,CA,94118,2349000,3,2.0,San Francisco,2202,3610,1937,9,,Active,http://www.redfin.com/CA/San-Francisco/930-Anza-St-94118/home/1261075,San Francisco MLS,512326,37.7798155,-122.4566979
MLS Listing,Condo/Co-op,1000 North Pt #1106,San Francisco,CA,94109,949000,1,1.0,San Francisco,,,,9,884,Active,http://www.redfin.com/CA/San-Francisco/1000-N-Point-St-94109/unit-1106/home/12395420,San Francisco MLS,511399,37.8055099,-122.4241573
MLS Listing,Single Family Residential,347 28th Ave,San Francisco,CA,94121,2295000,4,3.0,San Francisco,2269,2996,,10,200,Active,http://www.redfin.com/CA/San-Francisco/347-28th-Ave-94121/home/607824,San Francisco MLS,514601,37.7828272,-122.4884829
MLS Listing,Single Family Residential,349 28th Ave,San Francisco,CA,94121,1849000,3,2.0,San Francisco,1776,2996,,10,200,Active,http://www.redfin.com/CA/San-Francisco/349-28th-Ave-94121/home/174301411,San Francisco MLS,514608,37.7828705,-122.4883101
MLS Listing,Condo/Co-op,260 King St #779,San Francisco,CA,94107,999000,2,,San Francisco,996,213232,,10,886,Active,http://www.redfin.com/CA/San-Francisco/260-King-St-94107/unit-779/home/8191053,San Francisco MLS,514450,37.7776422,-122.3934181
MLS Listing,Condo/Co-op,1160 Mission St #1208,San Francisco,CA,94103,1275000,2,2.0,San Francisco,1201,43557,2008,10,1007,Active,http://www.redfin.com/CA/San-Francisco/1160-Mission-St-94103/unit-1208/home/17305338,San Francisco MLS,514777,37.7787037,-122.4126341
MLS Listing,Single Family Residential,575 Oxford St,San Francisco,CA,94134,1448888,4,,San Francisco,2122,1750,1997,10,,Active,http://www.redfin.com/CA/San-Francisco/575-Oxford-St-94134/home/775748,San Francisco MLS,514741,37.7229977,-122.4178577
MLS Listing,Condo/Co-op,236 Shipley St #304,SAN FRANCISCO,CA,94107,998000,2,2.0,SAN FRANCISCO,825,,2016,10,686,Active,http://www.redfin.com/CA/San-Francisco/236-Shipley-94107/unit-304/home/107586481,MLSListings,ML81827440,37.7792278,-122.4038574
MLS Listing,Multi-Family (2-4 Unit),3839 Mission St,San Francisco,CA,94110,1495000,2,4.0,San Francisco,2000,2130,1922,10,,Active,http://www.redfin.com/CA/San-Francisco/3839-Mission-St-94110/home/174297577,San Francisco MLS,514694,37.7355485,-122.4244058
MLS Listing,Single Family Residential,114 Jersey St,SAN FRANCISCO,CA,94114,3398000,3,4.5,SAN FRANCISCO,2723,1999,1908,10,,Active,http://www.redfin.com/CA/San-Francisco/114-Jersey-St-94114/home/1769106,MLSListings,ML81826864,37.751057,-122.427828
MLS Listing,Single Family Residential,15 Bruce Ave,San Francisco,CA,94112,1399000,4,3.0,San Francisco,2337,2975,1919,10,,Active,http://www.redfin.com/CA/San-Francisco/15-Bruce-Ave-94112/home/1415486,San Francisco MLS,513930,37.7219435,-122.4515341
MLS Listing,Single Family Residential,1359 47th Ave,San Francisco,CA,94122,799000,2,1.0,San Francisco,900,2996,1909,10,,Active,http://www.redfin.com/CA/San-Francisco/1359-47th-Ave-94122/home/631691,San Francisco MLS,512211,37.761134,-122.5073168
MLS Listing,Single Family Residential,2455 Vallejo St,San Francisco,CA,94123,9995000,5,6.0,San Francisco,,4125,1908,10,,Active,http://www.redfin.com/CA/San-Francisco/2455-Vallejo-St-94123/home/564388,San Francisco MLS,513042,37.7947506,-122.4376777
MLS Listing,Condo/Co-op,3008 Clay,San Francisco,CA,94115,2690000,3,2.5,San Francisco,2117,,,10,420,Active,http://www.redfin.com/CA/San-Francisco/3008-Clay-St-94115/home/1375188,San Francisco MLS,514631,37.789838,-122.442961
MLS Listing,Condo/Co-op,3635 23rd St,San Francisco,CA,94110,1289000,3,2.0,San Francisco,1613,3480,1900,10,447,Active,http://www.redfin.com/CA/San-Francisco/3635-23rd-St-94110/home/110052356,San Francisco MLS,511731,37.7533591,-122.4236649
MLS Listing,Condo/Co-op,1730 Broderick St #4,San Francisco,CA,94115,630000,0,1.0,San Francisco,,,1928,10,300,Active,http://www.redfin.com/CA/San-Francisco/1730-Broderick-St-94115/unit-4/home/1244559,San Francisco MLS,512323,37.7864135,-122.4415426
MLS Listing,Condo/Co-op,535 Duboce Ave,San Francisco,CA,94117,1525000,2,2.0,San Francisco,1420,2335,1906,10,,Active,http://www.redfin.com/CA/San-Francisco/535-Duboce-Ave-94117/home/1316951,San Francisco MLS,511326,37.769035,-122.43204
MLS Listing,Single Family Residential,239 26th Ave #204,San Francisco,CA,94121,839000,2,1.0,San Francisco,875,,1963,10,300,Active,http://www.redfin.com/CA/San-Francisco/239-26th-Ave-94121/unit-204/home/21699068,BAREIS,509697,37.7849095,-122.4863342
MLS Listing,Condo/Co-op,224 Lexington St,San Francisco,CA,94110,1195000,2,1.0,San Francisco,1100,,1906,10,500,Active,http://www.redfin.com/CA/San-Francisco/224-Lexington-St-94110/home/110052302,BAREIS,512016,37.759644,-122.420803
MLS Listing,Condo/Co-op,200 Dolores St #5,San Francisco,CA,94103,1750000,2,2.5,San Francisco,1407,,2014,10,756,Active,http://www.redfin.com/CA/San-Francisco/200-Dolores-St-94103/unit-5/home/49738169,BAREIS,511762,37.7660572,-122.4269225
MLS Listing,Single Family Residential,1241 Scott St,San Francisco,CA,94115,1200000,3,1.5,San Francisco,1303,,1911,10,,Active,http://www.redfin.com/CA/San-Francisco/1241-Scott-St-94115/home/174014728,BAREIS,511646,37.7814361,-122.4376224
MLS Listing,Single Family Residential,1239 Scott St,San Francisco,CA,94115,1150000,2,1.5,San Francisco,1246,,,10,,Active,http://www.redfin.com/CA/San-Francisco/1239-Scott-St-94115/home/1595092,BAREIS,511643,37.7814063,-122.4376627
MLS Listing,Single Family Residential,3150 Buchanan St,San Francisco,CA,94123,4500000,4,3.5,San Francisco,3137,2304,2013,10,,Active,http://www.redfin.com/CA/San-Francisco/3150-Buchanan-St-94123/home/1968499,BAREIS,510104,37.7991314,-122.4323249
MLS Listing,Condo/Co-op,1501 Filbert St Ph -7D,San Francisco,CA,94123,4380000,2,2.5,San Francisco,1562,,2014,10,688,Active,http://www.redfin.com/CA/San-Francisco/1501-Filbert-St-94123/unit-7D/home/110051696,BAREIS,509409,37.7991911,-122.4245164
MLS Listing,Condo/Co-op,2774 Union St #4,San Francisco,CA,94123,899000,1,1.0,San Francisco,684,,,10,190,Active,http://www.redfin.com/CA/San-Francisco/2774-Union-St-94123/unit-4/home/1627389,BAREIS,507318,37.79617,-122.4449655
MLS Listing,Condo/Co-op,1238 Sutter St #801,San Francisco,CA,94109,775000,1,1.0,San Francisco,,,2018,10,523,Active,http://www.redfin.com/CA/San-Francisco/1238-Sutter-St-94109/unit-801/home/146652357,"bridgeMLS, Bay East AOR, or Contra Costa AOR",40935665,37.7880028,-122.4208442
MLS Listing,Condo/Co-op,1022 Oak St,San Francisco,CA,94117,1495000,2,1.0,San Francisco,1472,2187,1922,10,275,Active,http://www.redfin.com/CA/San-Francisco/1022-Oak-St-94117/home/39910831,San Francisco MLS,512973,37.7735065,-122.4362434
MLS Listing,Single Family Residential,A Mason St,San Francisco,CA,94133,1999000,3,3.0,San Francisco,2179,,1909,10,690,Active,http://www.redfin.com/CA/San-Francisco/A-Mason-St-94133/home/174234917,San Francisco MLS,513372,37.8020376,-122.412896
MLS Listing,Condo/Co-op,101 Lombard St Unit 712W,San Francisco,CA,94111,1669000,2,2.0,San Francisco,1719,113438,1983,10,1623,Active,http://www.redfin.com/CA/San-Francisco/101-Lombard-St-94111/unit-712W/home/1947344,San Francisco MLS,512722,37.8037119,-122.4045338
MLS Listing,Condo/Co-op,3932 17th St,San Francisco,CA,94114,1495000,2,2.0,San Francisco,1235,3250,1900,10,400,Active,http://www.redfin.com/CA/San-Francisco/3932-17th-St-94114/home/1682260,San Francisco MLS,512023,37.762839,-122.433707
MLS Listing,Single Family Residential,819 Hampshire,San Francisco,CA,94110,899000,3,2.0,San Francisco,1140,,,11,,Active,http://www.redfin.com/CA/San-Francisco/819-Hampshire-St-94110/home/1662736,San Francisco MLS,514338,37.758899,-122.4075897
MLS Listing,Condo/Co-op,83 Mcallister St #109,San Francisco,CA,94102,449000,1,1.0,San Francisco,398,,2007,11,427,Active,http://www.redfin.com/CA/San-Francisco/83-McAllister-St-94102/unit-109/home/12277380,San Francisco MLS,514452,37.7806999,-122.4132699
MLS Listing,Condo/Co-op,255 Berry St #403,San Francisco,CA,94158,1325000,2,2.0,San Francisco,1290,42959,2004,11,815,Active,http://www.redfin.com/CA/San-Francisco/255-Berry-St-94158/unit-403/home/1706612,San Francisco MLS,514246,37.7741864,-122.3947434
MLS Listing,Condo/Co-op,38 Lusk St #4,San Francisco,CA,94107,2049000,1,2.0,San Francisco,1720,3825,1995,11,410,Active,http://www.redfin.com/CA/San-Francisco/38-Lusk-St-94107/unit-4/home/12396476,San Francisco MLS,513576,37.7784043,-122.3947906
MLS Listing,Condo/Co-op,401 Harrison Unit 39B,San Francisco,CA,94105,2250000,2,2.0,San Francisco,1311,,2014,11,1368,Active,http://www.redfin.com/CA/San-Francisco/401-Harrison-St-94105/unit-39B/home/144064312,San Francisco MLS,514341,37.7864989,-122.3921487
MLS Listing,Single Family Residential,806 Potrero Ave,San Francisco,CA,94110,1350000,4,3.0,San Francisco,1133,2395,1900,11,,Active,http://www.redfin.com/CA/San-Francisco/806-Potrero-Ave-94110/home/730445,San Francisco MLS,514342,37.7590856,-122.4072272
MLS Listing,Single Family Residential,3224 Jennings St,San Francisco,CA,94124,680000,3,1.5,San Francisco,1426,2247,1907,11,,Active,http://www.redfin.com/CA/San-Francisco/3224-Jennings-St-94124/home/1719973,San Francisco MLS,514215,37.7199198,-122.3953455
MLS Listing,Multi-Family (2-4 Unit),361 Hearst Ave,San Francisco,CA,94112,1095000,5,,San Francisco,2100,2813,1900,11,,Active,http://www.redfin.com/CA/San-Francisco/361-Hearst-Ave-94112/home/174291308,San Francisco MLS,514238,37.7306045,-122.4456923
MLS Listing,Single Family Residential,1683 Newcomb Ave,San Francisco,CA,94124,1190000,4,5.5,San Francisco,2908,2500,1890,11,,Active,http://www.redfin.com/CA/San-Francisco/1683-Newcomb-Ave-94124/home/1074581,San Francisco MLS,514305,37.7359772,-122.3915587
MLS Listing,Single Family Residential,32 Massasoit St,San Francisco,CA,94110,988000,2,1.0,San Francisco,968,1746,1951,11,,Active,http://www.redfin.com/CA/San-Francisco/32-Massasoit-St-94110/home/1622623,San Francisco MLS,514293,37.7451342,-122.4081233
MLS Listing,Condo/Co-op,8 Joost Ave #4,San Francisco,CA,94131,1475000,3,2.0,San Francisco,2138,2866,1979,11,400,Active,http://www.redfin.com/CA/San-Francisco/8-Joost-Ave-94131/unit-4/home/144769516,San Francisco MLS,513297,37.7325362,-122.4351987
MLS Listing,Condo/Co-op,875 Indiana St #324,San Francisco,CA,94107,935000,1,1.0,San Francisco,852,85458,2009,11,539,Active,http://www.redfin.com/CA/San-Francisco/875-Indiana-St-94107/unit-324/home/40139028,San Francisco MLS,512048,37.7596716,-122.3908629
MLS Listing,Condo/Co-op,338 Potrero Ave #504,San Francisco,CA,94103,999000,2,2.0,San Francisco,,,2017,11,731,Active,http://www.redfin.com/CA/San-Francisco/338-Potrero-Ave-94103/unit-504/home/143715318,San Francisco MLS,510472,37.7651395,-122.4078164
MLS Listing,Single Family Residential,56 Cielito Dr,SAN FRANCISCO,CA,94134,699000,3,1.0,SAN FRANCISCO,990,1999,1944,11,,Active,http://www.redfin.com/CA/San-Francisco/56-Cielito-Dr-94134/home/1885854,MLSListings,ML81827211,37.7097209,-122.4221162
MLS Listing,Condo/Co-op,1880 Steiner St #103,San Francisco,CA,94115,1499000,2,3.0,San Francisco,1332,17706,1999,11,891,Active,http://www.redfin.com/CA/San-Francisco/1880-Steiner-St-94115/unit-103/home/850192,San Francisco MLS,513984,37.7865726,-122.4347131
MLS Listing,Condo/Co-op,139 Stillman St #7,San Francisco,CA,94107,730000,1,1.0,San Francisco,882,,2005,11,515,Active,http://www.redfin.com/CA/San-Francisco/139-Stillman-St-94107/unit-7/home/22881601,San Francisco MLS,512428,37.7809111,-122.3971627
MLS Listing,Condo/Co-op,201 Sansome St #605,San Francisco,CA,94104,679000,1,1.0,San Francisco,565,,1909,11,673,Active,http://www.redfin.com/CA/San-Francisco/201-Sansome-St-94104/unit-605/home/22888282,San Francisco MLS,512002,37.7922568,-122.4012423
MLS Listing,Condo/Co-op,355 Buena Vista Ave Unit 310W,San Francisco,CA,94117,799000,1,1.0,San Francisco,705,,1986,11,824,Active,http://www.redfin.com/CA/San-Francisco/355-Buena-Vista-Ave-E-94117/unit-310W/home/102815185,San Francisco MLS,511812,37.7671808,-122.4401329
MLS Listing,Single Family Residential,340 25th Ave Unit C,San Francisco,CA,94121,1125000,1,1.0,San Francisco,,,1984,11,13,Active,http://www.redfin.com/CA/San-Francisco/340-25th-Ave-94121/unit-C/home/174289544,San Francisco MLS,512190,37.783138,-122.484629
MLS Listing,Condo/Co-op,638 Minna St #12,San Francisco,CA,94103,1095000,2,2.0,San Francisco,1486,5250,1998,12,792,Active,http://www.redfin.com/CA/San-Francisco/638-Minna-94103/unit-12/home/12395738,San Francisco MLS,512931,37.7780564,-122.4115784
MLS Listing,Condo/Co-op,321 Haight,San Francisco,CA,94102,1495000,3,2.0,San Francisco,2655,,1907,12,430,Active,http://www.redfin.com/CA/San-Francisco/321-Haight-St-94102/home/148057225,San Francisco MLS,514254,37.772394,-122.4275539
MLS Listing,Single Family Residential,340 25th Ave Unit B,San Francisco,CA,94121,2950000,3,2.0,San Francisco,3242,,1984,12,400,Active,http://www.redfin.com/CA/San-Francisco/340-25th-Ave-94121/unit-B/home/174289083,San Francisco MLS,512338,37.783138,-122.484629
MLS Listing,Single Family Residential,1430 19th Ave,SAN FRANCISCO,CA,94122,1400000,4,2.0,SAN FRANCISCO,2023,2552,1923,12,,Active,http://www.redfin.com/CA/San-Francisco/1430-19th-Ave-94122/home/1548187,MLSListings,ML81827180,37.7611057,-122.4766322
MLS Listing,Condo/Co-op,900 Bush St #209,San Francisco,CA,94109,599000,1,1.0,San Francisco,632,37816,1982,12,1079,Active,http://www.redfin.com/CA/San-Francisco/900-Bush-St-94109/unit-209/home/552723,San Francisco MLS,514177,37.7899451,-122.4127266
MLS Listing,Condo/Co-op,301 Mission St Unit 3D,San Francisco,CA,94105,925000,1,1.0,San Francisco,789,,2009,12,1535,Active,http://www.redfin.com/CA/San-Francisco/301-Mission-St-94105/unit-3D/home/40142393,San Francisco MLS,513724,37.7903824,-122.3961531
MLS Listing,Condo/Co-op,1250 Jones St #1102,San Francisco,CA,94109,1695000,1,1.0,San Francisco,1115,,1929,12,752,Active,http://www.redfin.com/CA/San-Francisco/1250-Jones-St-94109/unit-1102/home/1474645,San Francisco MLS,514172,37.7930713,-122.4140487
MLS Listing,Condo/Co-op,541 27th St,San Francisco,CA,94131,1625000,3,2.0,San Francisco,1500,2850,1976,12,,Active,http://www.redfin.com/CA/San-Francisco/541-27th-St-94131/home/853012,San Francisco MLS,514174,37.746326,-122.432407
MLS Listing,Condo/Co-op,901 Bayshore #206,San Francisco,CA,94124,240000,1,1.0,San Francisco,,506,,12,374,Active,http://www.redfin.com/CA/San-Francisco/901-Bayshore-Blvd-94124/unit-206/home/12402030,San Francisco MLS,514164,37.732633,-122.4042121
MLS Listing,Condo/Co-op,601 Van Ness Ave #128,San Francisco,CA,94102,460000,0,1.0,San Francisco,518,105806,1982,12,850,Active,http://www.redfin.com/CA/San-Francisco/601-Van-Ness-Ave-94102/unit-128/home/1579514,San Francisco MLS,510981,37.7813857,-122.4214063
MLS Listing,Condo/Co-op,821 Folsom St #107,San Francisco,CA,94107,1025000,2,2.0,San Francisco,1102,28875,2004,12,680,Active,http://www.redfin.com/CA/San-Francisco/821-Folsom-St-94107/unit-107/home/12401848,San Francisco MLS,514150,37.7813849,-122.4013601
MLS Listing,Condo/Co-op,201 Harrison St #802,San Francisco,CA,94105,549000,0,,San Francisco,432,38449,1991,12,576,Active,http://www.redfin.com/CA/San-Francisco/201-Harrison-St-94105/unit-802/home/724475,San Francisco MLS,514129,37.7875875,-122.3904715
MLS Listing,Single Family Residential,956 Ashbury St,San Francisco,CA,94117,3750000,4,2.5,San Francisco,3000,4795,1910,12,,Active,http://www.redfin.com/CA/San-Francisco/956-Ashbury-St-94117/home/1254341,San Francisco MLS,511979,37.7648346,-122.4456401
MLS Listing,Single Family Residential,85 Woodacre Dr,San Francisco,CA,94132,1680000,3,2.0,San Francisco,2223,5562,1937,12,,Active,http://www.redfin.com/CA/San-Francisco/85-Woodacre-Dr-94132/home/1337422,San Francisco MLS,513973,37.7321519,-122.4732272
MLS Listing,Condo/Co-op,85 Cleary Ct #4,San Francisco,CA,94109,899000,3,2.0,San Francisco,1395,,1962,12,1040,Active,http://www.redfin.com/CA/San-Francisco/85-Cleary-Ct-94109/unit-4/home/12401334,San Francisco MLS,510585,37.783611,-122.4267148
MLS Listing,Condo/Co-op,11 Kenneth Rexroth Pl,SAN FRANCISCO,CA,94133,1300000,2,2.0,SAN FRANCISCO,1124,,1911,12,150,Active,http://www.redfin.com/CA/San-Francisco/11-Kenneth-Rexroth-Pl-94133/home/28935690,MLSListings,ML81827130,37.7982752,-122.4080257
MLS Listing,Single Family Residential,,San Francisco,CA,94112,1066000,3,1.0,San Francisco,1178,6246,1908,12,,Active,http://www.redfin.com/CA/San-Francisco/Undisclosed-address-94112/home/1736762,"bridgeMLS, Bay East AOR, or Contra Costa AOR",40935464,37.7167999,-122.4599266
MLS Listing,Multi-Family (2-4 Unit),1441 South Van Ness Ave,San Francisco,CA,94110,1725000,4,2.0,San Francisco,2650,2874,1925,12,,Active,http://www.redfin.com/CA/San-Francisco/1441-S-Van-Ness-Ave-94110/home/174279798,San Francisco MLS,513765,37.7500873,-122.4159455
MLS Listing,Condo/Co-op,1160 Mission St #1011,San Francisco,CA,94103,700000,1,1.0,San Francisco,765,,2008,12,781,Active,http://www.redfin.com/CA/San-Francisco/1160-Mission-St-94103/unit-1011/home/17305229,San Francisco MLS,511460,37.7787037,-122.4126341
MLS Listing,Multi-Family (2-4 Unit),2229 Lombard St,San Francisco,CA,94123,3600000,5,,San Francisco,4188,1668,1931,12,,Active,http://www.redfin.com/CA/San-Francisco/2229-Lombard-St-94123/home/174279797,San Francisco MLS,513978,37.7993576,-122.4381533
MLS Listing,Condo/Co-op,301 Main St Unit 32F,San Francisco,CA,94105,2099000,2,2.0,San Francisco,1323,76210,2008,13,1024,Active,http://www.redfin.com/CA/San-Francisco/301-Main-St-94105/unit-32F/home/17304907,San Francisco MLS,513966,37.7895974,-122.3911965
MLS Listing,Condo/Co-op,338 Spear St Unit 35D,SAN FRANCISCO,CA,94105,2795000,3,3.0,SAN FRANCISCO,1729,,2009,13,1212,Active,http://www.redfin.com/CA/San-Francisco/338-Spear-St-94105/unit-35D/home/21966565,MLSListings,ML81827039,37.7894137,-122.3906433
MLS Listing,Condo/Co-op,3701 Geary Blvd #101,San Francisco,CA,94118,898000,0,,San Francisco,1883,,1986,14,600,Active,http://www.redfin.com/CA/San-Francisco/3701-Geary-Blvd-94118/unit-101/home/1306441,San Francisco MLS,509084,37.7809407,-122.4591688
MLS Listing,Condo/Co-op,68 Parker Ave,San Francisco,CA,94118,2595000,3,2.5,San Francisco,2478,3271,,14,250,Active,http://www.redfin.com/CA/San-Francisco/68-Parker-Ave-94118/home/1962561,San Francisco MLS,513870,37.7848031,-122.454398
MLS Listing,Single Family Residential,4319 25th St,San Francisco,CA,94114,3995000,4,4.5,San Francisco,2893,3036,1903,14,,Active,http://www.redfin.com/CA/San-Francisco/4319-25th-St-94114/home/801948,San Francisco MLS,513876,37.7493583,-122.4366681
MLS Listing,Condo/Co-op,5800 3rd St #1401,SAN FRANCISCO,CA,94124,680000,1,1.0,SAN FRANCISCO,816,,2010,14,432,Active,http://www.redfin.com/CA/San-Francisco/5800-3rd-St-94124/unit-1401/home/40625853,MLSListings,ML81827017,37.7250528,-122.3951255
MLS Listing,Single Family Residential,53 Ledyard St,San Francisco,CA,94124,1284000,5,3.0,Silver Terrace,2169,2500,1935,14,,Active,http://www.redfin.com/CA/San-Francisco/53-Ledyard-St-94124/home/1917779,"bridgeMLS, Bay East AOR, or Contra Costa AOR",40935371,37.7332598,-122.4017954
MLS Listing,Single Family Residential,2418 29th Ave,SAN FRANCISCO,CA,94116,949950,6,3.0,SAN FRANCISCO,2480,3000,1953,14,,Active,http://www.redfin.com/CA/San-Francisco/2418-29th-Ave-94116/home/661964,MLSListings,ML81826981,37.7421771,-122.4861332
MLS Listing,Single Family Residential,604 Mississippi St,San Francisco,CA,94107,1798000,3,2.5,San Francisco,,2495,,14,,Active,http://www.redfin.com/CA/San-Francisco/604-Mississippi-St-94107/home/173646504,San Francisco MLS,513806,37.7589082,-122.3944288